business_id,name,categories,city,latitude,longitude,state,stars,review_count,country,city_state_country_display
MTSW4McQd7CbVtyjqoe9mw,St Honore Pastries,"Restaurants, Food, Bubble Tea, Coffee & Tea, Bakeries",Philadelphia,39.9555052,-75.1555641,PA,4.0,80,United States,"Philadelphia, PA, United States"
WKMJwqnfZKsAae75RMP6jA,Roast Coffeehouse and Wine Bar,"Coffee & Tea, Food, Cafes, Bars, Wine Bars, Restaurants, Nightlife",Edmonton,53.5460453,-113.4991693,AB,4.0,40,Canada,"Edmonton, AB, Canada"
JX4tUpd09YFchLBuI43lGw,Naked Cyber Cafe & Espresso Bar,"Arts & Entertainment, Music Venues, Internet Service Providers, Nightlife, Food, Coffee & Tea, Jazz & Blues, Professional Services, Internet Cafes",Edmonton,53.5446819,-113.506589,AB,4.0,12,Canada,"Edmonton, AB, Canada"
lk9IwjZXqUMqqOhM774DtQ,Caviar & Bananas,"Coffee & Tea, Restaurants, Wine Bars, Bars, Nightlife, American (Traditional), Event Planning & Services, Food, Caterers, Breakfast & Brunch, Cafes, Diners",Nashville,36.1483712,-86.7988947,TN,3.5,159,United States,"Nashville, TN, United States"
cVBxfMC4lp3DnocjYA3FHQ,Paws The Cat Cafe,"Coffee & Tea, Cafes, Pets, Restaurants, Pet Adoption, Food",Edmonton,53.5496333,-113.5087799,AB,5.0,20,Canada,"Edmonton, AB, Canada"
ppFCk9aQkM338Rgwpl2F5A,Wawa,"Restaurants, Automotive, Delis, Gas Stations, Food, Coffee & Tea, Sandwiches, Convenience Stores",Philadelphia,39.954573,-75.1948936,PA,3.0,56,United States,"Philadelphia, PA, United States"
IDtLPgUrqorrpqSLdfMhZQ,Helena Avenue Bakery,"Food, Restaurants, Salad, Coffee & Tea, Breakfast & Brunch, Sandwiches, Bakeries",Santa Barbara,34.4144445,-119.6906718,CA,4.0,389,United States,"Santa Barbara, CA, United States"
oaboaRBUgGjbo2kfUIKDLQ,Mike's Ice Cream,"Ice Cream & Frozen Yogurt, Coffee & Tea, Restaurants, Sandwiches, Food",Nashville,36.1626492,-86.7759733,TN,4.5,593,United States,"Nashville, TN, United States"
1MeIwdbTnZOBFCKOrgaxuw,Ricardo's Italian Cafe,"American (New), Restaurants, Cafes, Italian, American (Traditional)",Saint Louis,38.6172724,-90.2127841,MO,3.5,80,United States,"Saint Louis, MO, United States"
h_qlv6CIXGVurFOhFQ945w,Tim Hortons,"Coffee & Tea, Food",Edmonton,53.5599789914,-113.6162690363,AB,3.5,6,Canada,"Edmonton, AB, Canada"
yM8LlTInbQH4FwWC97lz6w,McDonald's,"Fast Food, Restaurants, Food, Burgers, Coffee & Tea",St. Louis,38.6124951839,-90.2219420671,MO,1.5,100,United States,"St. Louis, MO, United States"
2dlQX5sP9X6Dlm1MmNOlSw,ReAnimator Coffee,"Food, Coffee & Tea",Philadelphia,39.9764555,-75.1270254,PA,4.0,105,United States,"Philadelphia, PA, United States"
bTve2mwLk5Zc01vRKqc2KQ,Red Hook Coffee & Tea,"Restaurants, Breakfast & Brunch, Vegan, Bagels, Food, Coffee & Tea",Philadelphia,39.9385518,-75.1496356,PA,4.5,183,United States,"Philadelphia, PA, United States"
py5aKmlTB2NarfsfcOpHOQ,Cafe Con Leche,"Restaurants, Breakfast & Brunch, Coffee Roasteries, Coffee & Tea, Food",Tampa,27.9767745,-82.5374233,FL,2.5,55,United States,"Tampa, FL, United States"
_T0cPZE2ZJOTTlYYKMP64Q,Brown Sugar Bakery & Cafe,"Cupcakes, Caribbean, Restaurants, Trinidadian, Food, Bakeries, Cafes",Philadelphia,39.9563959,-75.2253784,PA,4.5,66,United States,"Philadelphia, PA, United States"
IOZrqUQ2Jg6UeQ5CWpsmkg,Nesbit's Magazine Street Market,"Convenience Stores, Food, Grocery, Coffee & Tea, Beer, Wine & Spirits",New Orleans,29.9504773,-90.0679445,LA,5.0,7,United States,"New Orleans, LA, United States"
8YJtf5v76SIz-4udyF4YmA,The Hideout Coffee House,"Food, Coffee & Tea",Brandon,27.9344684803,-82.2878021747,FL,4.5,22,United States,"Brandon, FL, United States"
aNXw3PkXVt8ANwLyCfcmpg,McDonald's,"Restaurants, Fast Food, Burgers, Food, Coffee & Tea",Lansdale,40.2637063378,-75.3179157563,PA,1.5,17,United States,"Lansdale, PA, United States"
JwBTq6IOFH97b9Hr6RT7pw,Reinette Café & Patisserie,"Food, Coffee & Tea, Bakeries, Restaurants, Cafes",Edmonton,53.5225968429,-113.61922974,AB,3.0,5,Canada,"Edmonton, AB, Canada"
z9wCTHYI2VZy9YIblwSsgg,The Silo Eatery Coffee Bakery,"Coffee & Tea, Restaurants, Food, Cafes, Bakeries",Tampa,27.9464963776,-82.3555628732,FL,4.0,5,United States,"Tampa, FL, United States"
cl5NjtALgaX7E-WL2DtiYQ,Liberty City Roasters,"Food, Wholesalers, Coffee Roasteries, Professional Services, Coffee & Tea",Bristol,40.100524,-74.865196,PA,4.5,8,United States,"Bristol, PA, United States"
516L9-ZWyqVgzqjP5uW7Jg,The Corner Cafe and Deli,"Sandwiches, Cafes, Burgers, Food, Restaurants",Tampa,27.9444574,-82.4578244,FL,4.0,6,United States,"Tampa, FL, United States"
gb7JjRJtzWDsIWpJihZhBQ,McDonald's,"Food, Burgers, Restaurants, Coffee & Tea, Fast Food",Pennsville,39.6773020944,-75.4953995347,NJ,2.0,20,United States,"Pennsville, NJ, United States"
JPm93BlP-UHYPqFgK66JUw,Local Links,"Coffee & Tea, Restaurants, American (New), Food, Cafes, Breakfast & Brunch",Haddon Heights,39.8826936,-75.0583844,NJ,4.5,70,United States,"Haddon Heights, NJ, United States"
VeFfrEZ4iWaecrQg6Eq4cg,Cal Taco,"Burgers, Cafes, Restaurants, Mexican, American (Traditional)",Goleta,34.4305419,-119.882367,CA,4.0,189,United States,"Goleta, CA, United States"
bchZXVE4feVx4Q5rhIRCGg,NY Bagel Cafe & Deli,"Restaurants, Food, Bagels, Breakfast & Brunch, Coffee & Tea, Sandwiches, Delis, American (New)",Philadelphia,40.0027825,-75.2222705,PA,3.0,52,United States,"Philadelphia, PA, United States"
9qxMhGWjGsuPUoQB3Y74Wg,McDonald's,"Food, Restaurants, Coffee & Tea, Burgers, Fast Food",St. Louis,38.6369079537,-90.1954829934,MO,1.5,62,United States,"St. Louis, MO, United States"
VCkSUsdL5P0p16DAPxVROA,NY Bagel & Deli Shop,"Bagels, Food, Breakfast & Brunch, Coffee & Tea, Restaurants, Burgers, Delis",Philadelphia,39.960811,-75.1573883,PA,4.0,31,United States,"Philadelphia, PA, United States"
dIpTuL2T1L98GQGU17IeSw,The Bricks,"Bars, Breakfast & Brunch, Restaurants, American (New), Coffee & Tea, Food, Nightlife, Vegetarian",Tampa,27.9600238,-82.4444005,FL,4.0,548,United States,"Tampa, FL, United States"
vxrGNnuEef7YCfB7mN08rA,Dunkin',"Coffee & Tea, Donuts, Food",Pinellas Park,27.8718285,-82.7502853,FL,2.0,8,United States,"Pinellas Park, FL, United States"
WmnPtMtY0elYVStooCTfng,Barista Cafe,"Breakfast & Brunch, Coffee & Tea, Sandwiches, Food, Restaurants, Cafes",Palmyra,40.0043533,-75.0222651,NJ,4.5,12,United States,"Palmyra, NJ, United States"
wCgIJhH_CTuwsSZPcafkng,Dunkin' Donuts,"Food, Donuts, Coffee & Tea",Indianapolis,39.7038868163,-86.1483024479,IN,2.0,19,United States,"Indianapolis, IN, United States"
PW5eZM5RAQEhy3wgovChhQ,Cafe Victoria's,"Food, Cafes, Restaurants, Coffee & Tea, Breakfast & Brunch",Philadelphia,39.958422,-75.158257,PA,3.0,29,United States,"Philadelphia, PA, United States"
6_Zf2QsRHCH1RhbzA9inyw,Starbucks,"Coffee & Tea, Food",Tampa,27.9963703,-82.580954,FL,3.0,56,United States,"Tampa, FL, United States"
lPPYZr1_jx0XeW-xR9WJtw,DOSC,"Bars, Cocktail Bars, Coffee & Tea, Food, Restaurants, Cafes, Steakhouses, Nightlife, Tapas/Small Plates",Edmonton,53.5428720873,-113.4995122836,AB,4.0,87,Canada,"Edmonton, AB, Canada"
-H6s1c2NRic5UKxXqi4FdQ,Bagelicious and More,"Food, Breakfast & Brunch, Restaurants, Bagels, Coffee & Tea",Brandon,27.9588017985,-82.2789713027,FL,3.5,7,United States,"Brandon, FL, United States"
IbndcMURguByburM72o3SA,State Street Kitchen,"Korean, American (Traditional), Sandwiches, Cheesesteaks, Restaurants, Coffee & Tea, Breakfast & Brunch, Food",Newtown,40.2285432,-74.9370146,PA,4.5,124,United States,"Newtown, PA, United States"
Iipfa9Kaac9XH5Vo8GQwvg,Starbucks,"Coffee & Tea, Food",Edmonton,53.6161467,-113.4324244,AB,3.5,10,Canada,"Edmonton, AB, Canada"
3uvFklejzRPwEPEZQ5vHYQ,Wawa,"Delis, Convenience Stores, Restaurants, Food, Coffee & Tea, Sandwiches",Media,39.916175541,-75.3876546369,PA,3.5,14,United States,"Media, PA, United States"
0l_njS4wGMadAk1b4nZRUA,Panera Bread,"Restaurants, Bakeries, Cafes, Bagels, Food, Soup, Salad, Sandwiches, Breakfast & Brunch",King of Prussia,40.089985,-75.382315,PA,2.5,58,United States,"King of Prussia, PA, United States"
A1lAqN3SOaBLoo6NqVcy4Q,McDonald's,"Sandwiches, Burgers, Food, Fast Food, Restaurants, Coffee & Tea",Brandon,27.925332,-82.325395,FL,2.0,6,United States,"Brandon, FL, United States"
kLSEk3qXY1KdtFjxHJ9pww,McDonald's,"Restaurants, Fast Food, Food, Coffee & Tea, Burgers",Philadelphia,40.0884161,-74.9650112,PA,1.5,20,United States,"Philadelphia, PA, United States"
epGYbd0_OeSxsSkw-Kx5Rg,Hippie Hi,"Vegan, Gluten-Free, Restaurants, Bubble Tea, Salad, Tea Rooms, Food, Coffee & Tea",Clearwater,27.9684516983,-82.7621585038,FL,4.0,16,United States,"Clearwater, FL, United States"
-kY_HDP7IMvGl-kBIZVU4A,Dune Coffee Roasters - Anacapa,"Coffee & Tea, Coffee Roasteries, Food",Santa Barbara,34.4189939,-119.6950684,CA,4.0,320,United States,"Santa Barbara, CA, United States"
sophKEDc2rBDe-cuOaJDkA,365 Caffe Italiano,"Breakfast & Brunch, Coffee & Tea, Food, Ice Cream & Frozen Yogurt, Creperies, Gelato, Comfort Food, Sandwiches, Restaurants, Cafes",Wesley Chapel,28.187946572,-82.3500558385,FL,4.5,127,United States,"Wesley Chapel, FL, United States"
vMp55ea__Pk0fYbBDCn6jg,Dunkin',"Food, Donuts, Coffee & Tea",Brandon,27.8940624,-82.2719595,FL,2.0,23,United States,"Brandon, FL, United States"
hK59rATCI9o_rmeQu57RWw,De Ville Coffee House & Creperie,"Coffee & Tea, Food",New Orleans,29.958501,-90.06163,LA,4.5,36,United States,"New Orleans, LA, United States"
dD2p903p8lU0IgXT3OFluA,Edgehill Cafe,"Breakfast & Brunch, Restaurants, Food, Cafes, Coffee & Tea, American (Traditional), Sandwiches",Nashville,36.1429685,-86.7923549,TN,3.5,245,United States,"Nashville, TN, United States"
3vTG6LQyr3obzfvrK1l1hA,7-Eleven,"Food, Gas Stations, Service Stations, Convenience Stores, Automotive, Coffee & Tea, Gas Stations",Sparks,39.6385027425,-119.7128690779,NV,2.0,12,United States,"Sparks, NV, United States"
wcpL6sD6jKsBO0tbdK2KEA,McDonald's,"Restaurants, Coffee & Tea, Fast Food, Burgers, Food",Fishers,39.9575816,-86.0106627,IN,2.0,34,United States,"Fishers, IN, United States"
2qhuQ-tnonyLEQLw2cbvAg,Tim Hortons,"Food, Coffee & Tea",Edmonton,53.6301604595,-113.5449765623,AB,3.0,9,Canada,"Edmonton, AB, Canada"
0pMj5xUAecW9o1P35B0AMw,Wawa,"Food, Coffee & Tea, Gas Stations, Restaurants, Automotive, Sandwiches, Convenience Stores",Norristown,40.141292,-75.389286,PA,3.5,8,United States,"Norristown, PA, United States"
5EGhvgDt_E-JPl4EhQkOtg,Edgehill Cafe,"Coffee & Tea, Food, Restaurants, Internet Cafes, Breakfast & Brunch",Nashville,36.024589,-86.71193,TN,4.0,7,United States,"Nashville, TN, United States"
4FaYG9qKDpDyr68bKmaIEw,Capitol Cellars,"Restaurants, Bars, Wine Bars, American (Traditional), Nightlife, American (New), Wineries, Local Flavor, Coffee & Tea, Food, Breakfast & Brunch, Steakhouses, Arts & Entertainment",Boise,43.6135729,-116.1999038,ID,4.0,176,United States,"Boise, ID, United States"
yUcMPv-B9gCUUNT-GUiJbw,The flagpole Nola,"Shaved Ice, Juice Bars & Smoothies, Desserts, Coffee & Tea, Food",New Orleans,29.9724753,-90.0724686,LA,5.0,30,United States,"New Orleans, LA, United States"
L7mbUPFMAfetY0fzuYtZ_g,Dunkin',"Restaurants, Donuts, Coffee & Tea, Food",Delran,40.0153779791,-74.9543424694,NJ,3.0,7,United States,"Delran, NJ, United States"
Ei0wJeADbNtwvA9CrvknJw,Cocco's Gelateria,"Coffee & Tea, Bakeries, Desserts, Food, Ice Cream & Frozen Yogurt",Primos,39.9199693,-75.2984646,PA,4.5,37,United States,"Primos, PA, United States"
Iuir7lUtx-LMhYtStwyf3Q,Another Broken Egg Cafe,"American (Traditional), Restaurants, Breakfast & Brunch, Cafes, Bars, Nightlife, Cocktail Bars",Indianapolis,39.904151,-86.083809,IN,4.0,26,United States,"Indianapolis, IN, United States"
wMJlbZt2vOTG_FV96gkRVA,Dunkin',"Donuts, Food, Coffee & Tea, Restaurants",Cherry Hill,39.9374871,-75.0363126,NJ,3.5,6,United States,"Cherry Hill, NJ, United States"
RrqRin8BYGrTlJbCDwtLzA,Wawa,"Delis, Gas Stations, Food, Convenience Stores, Restaurants, Automotive, Coffee & Tea, Sandwiches",Philadelphia,39.9510885597,-75.1989988336,PA,3.5,50,United States,"Philadelphia, PA, United States"
IgNDlyLERBwFGphgcC5VDQ,Cosi,"Sandwiches, Vegetarian, Pizza, Food, Coffee & Tea, Delis, Restaurants, American (New)",Philadelphia,39.9487514826,-75.1604487143,PA,2.5,63,United States,"Philadelphia, PA, United States"
QpPc51mH86xyrRmnFijpTQ,Kávé Express,"Coffee & Tea, Juice Bars & Smoothies, Food",Hendersonville,36.3027229388,-86.6324932185,TN,4.5,50,United States,"Hendersonville, TN, United States"
W4ZEKkva9HpAdZG88juwyQ,Mr. B's Bistro,"Bars, Breakfast & Brunch, Restaurants, Barbeque, Cajun/Creole, Cafes, Cocktail Bars, Nightlife",New Orleans,29.9543868,-90.0683629,LA,4.0,2064,United States,"New Orleans, LA, United States"
sZyBB8wv0O1We1x40-Edug,Dunkin',"Donuts, Food, Bagels, Coffee & Tea",Riverview,27.834780999,-82.3281975657,FL,2.5,30,United States,"Riverview, FL, United States"
oY6osC4Ch3PvguA7D1hh_w,Starbucks,"Coffee & Tea, Food",Cinnaminson,40.000157,-74.9873134,NJ,4.5,7,United States,"Cinnaminson, NJ, United States"
KXVn1sHOBrLvARWYUhI-lg,Stardust Tea Spices and Beads,"Specialty Food, Food, Coffee & Tea, Arts & Crafts, Shopping, Art Supplies, Herbs & Spices",Nashville,36.1384241,-86.8791496,TN,4.5,6,United States,"Nashville, TN, United States"
VJnq2lgXILRaGuXXlmRztw,Eagles Peak Spring Water,"Coffee & Tea, Food, Water Delivery, Local Services",Fountainville,40.34061,-75.150473,PA,2.0,18,United States,"Fountainville, PA, United States"
koeubKPpi6ax4FDh7_zcWg,Palo De Azucar Cafe,"Cafes, Restaurants, Food, Coffee & Tea",Trenton,40.2071578,-74.7499323386,NJ,5.0,5,United States,"Trenton, NJ, United States"
4TQMOy00KD_54xSFwKgMZw,Ndulge,"Restaurants, Thai, Food, Cafes, Cupcakes",Philadelphia,40.025842293,-75.2243893677,PA,3.5,15,United States,"Philadelphia, PA, United States"
C3roKH0ekXBz8l0ZoUIvAA,Roadrunner Coffee Co.,"Restaurants, American (Traditional), Food, Juice Bars & Smoothies, Coffee & Tea",Tucson,32.2865595,-110.9982234,AZ,4.0,9,United States,"Tucson, AZ, United States"
hGy3actugEISbvEGQeMz3A,Dunkin',"Food, Donuts, Coffee & Tea",Royersford,40.1905208,-75.5320826,PA,2.0,23,United States,"Royersford, PA, United States"
k0AO8X3VzWe_F4lkMb0eSg,The Cubby Hole,"Breakfast & Brunch, Coffee & Tea, Restaurants, Sandwiches, Food",Moorestown,39.9647367,-74.9453088,NJ,4.5,202,United States,"Moorestown, NJ, United States"
COclRBaXBjYpomS4syUmvg,Monon Coffee Company,"Restaurants, Food, Coffee & Tea",Indianapolis,39.870878,-86.1422438,IN,4.0,170,United States,"Indianapolis, IN, United States"
I4TFiNX5gTsJBnEGH2Tl8Q,Benna's West,"Juice Bars & Smoothies, Sandwiches, Food, Restaurants, Coffee & Tea",Philadelphia,39.931855,-75.168473,PA,3.5,47,United States,"Philadelphia, PA, United States"
j_eImSxsxnW0FCM1b5ekEQ,Frost & Bean Gelato & Coffee Laboratory,"Coffee & Tea, Food, Gelato",Dunedin,28.0104187049,-82.7897292149,FL,4.0,11,United States,"Dunedin, FL, United States"
5QCLmv-JrdY0ZGc_D5__iw,Wheel Cafe,"Coffee & Tea, Cafes, Food, Breakfast & Brunch, American (New), Restaurants, American (Traditional)",Dunedin,28.019385,-82.7742533,FL,4.5,68,United States,"Dunedin, FL, United States"
tjEKEDmyR_VmeBkJGwreLA,Dunkin',"Food, Donuts, Coffee & Tea",Tampa,28.0127575,-82.5055465,FL,2.0,21,United States,"Tampa, FL, United States"
aYJjJMN8heS2PmkvsQzaZg,Treme Coffeehouse,"Restaurants, Bagels, Coffee & Tea, Cafes, Food",New Orleans,29.9654586,-90.0695669,LA,4.5,137,United States,"New Orleans, LA, United States"
9sdu-m075T6qdB46wXP46w,Krispy Kreme,"Food, Donuts, Coffee & Tea",Nashville,36.1521600733,-86.8027144035,TN,3.0,65,United States,"Nashville, TN, United States"
AaWmckcT3O1iQSAIUmzwUA,Basimo Beach Cafe,"Breakfast & Brunch, Restaurants, Juice Bars & Smoothies, Cafes, Coffee & Tea, Food",Clearwater,27.9519956663,-82.829717,FL,4.0,339,United States,"Clearwater, FL, United States"
pxuMxh5oC7W-PDN9wwvozg,Starbucks,"Coffee & Tea, Food",Reno,39.527772,-119.812518,NV,3.0,44,United States,"Reno, NV, United States"
Up2hJViJJf61k9V3jFbvzg,Cafe Arnold Neighborhood Grill,"Restaurants, Sports Bars, Bars, Barbeque, American (Traditional), Nightlife, Food, Beer, Wine & Spirits, Cafes",Arnold,38.4060687852,-90.3770434828,MO,2.5,9,United States,"Arnold, MO, United States"
-rTJCKclkU_ZnoQb4oKa9w,Fray's Donut House,"Breakfast & Brunch, Coffee & Tea, Restaurants, Donuts, Food",Saint Petersburg,27.820184,-82.655327,FL,4.5,60,United States,"Saint Petersburg, FL, United States"
5TVWytR2oNbSKYgfxypuBw,La Patisserie Chouquette,"Cafes, Food, Bakeries, Restaurants",Saint Louis,38.6197152,-90.2556467,MO,4.0,229,United States,"Saint Louis, MO, United States"
nBr6NgqcZz1GhtAngU0RSQ,Forin Cafe,"Shopping, Restaurants, Cafes, Fashion",Philadelphia,39.9813471541,-75.1322471288,PA,4.5,10,United States,"Philadelphia, PA, United States"
UFpCraqzFBAhtZqmxmiWsA,Cat Therapy,"Themed Cafes, Cafes, Pets, Arts & Entertainment, Women's Clothing, Coffee & Tea, Shopping, Pet Adoption, Fashion, Pet Sitting, Accessories, Pet Stores, Pet Services, Food, Restaurants",Santa Barbara,34.4233018995,-119.7054707479,CA,4.5,116,United States,"Santa Barbara, CA, United States"
xb-qtXVZ7xFr51Se5fAZjg,Saige Café,"Sandwiches, Breakfast & Brunch, Coffee & Tea, Food, Restaurants, Cafes, Juice Bars & Smoothies",Philadelphia,39.9667910353,-75.1400172338,PA,3.0,14,United States,"Philadelphia, PA, United States"
IazLGcO9aggJnMMa_5UO1Q,Kimberton Whole Foods - Collegeville,"Juice Bars & Smoothies, Restaurants, Food, Coffee & Tea, Specialty Food, Organic Stores, Health Markets, Grocery, Sandwiches, Shopping, Vitamins & Supplements",Collegeville,40.1826806624,-75.4521030608,PA,5.0,6,United States,"Collegeville, PA, United States"
l8uzbLGk9CLjElcWGyBZ0Q,Transcend Coffee - Ritchie Market,"Food, Cafes, Coffee & Tea, Restaurants",Edmonton,53.51263,-113.476381,AB,4.5,32,Canada,"Edmonton, AB, Canada"
uxoQdZD3mEptaPohiLQg1w,Stone House Grille,"Coffee & Tea, Pubs, Restaurants, Bars, Food, American (New), Nightlife, Breakfast & Brunch, Brewpubs, Breweries",Kimberton,40.1298141,-75.5764069,PA,4.5,56,United States,"Kimberton, PA, United States"
jlkDIOPoRP9SJXTkRVpkMQ,BFF Cafe,"Greek, Food, American (New), Specialty Food, Cafes, Restaurants, Breakfast & Brunch, Vegetarian, Gluten-Free, Diners, Burgers",Reno,39.5001633,-119.8576794,NV,4.0,92,United States,"Reno, NV, United States"
U30ggGzFpXvc2NZYwOW3qg,Mood Cafe,"Cafes, Pakistani, Juice Bars & Smoothies, Restaurants, Ice Cream & Frozen Yogurt, Halal, Indian, Coffee & Tea, Food",Philadelphia,39.9486639126,-75.2158315415,PA,4.5,458,United States,"Philadelphia, PA, United States"
0_gh-ZRllduRLrjaYy0Icg,Wawa,"Gas Stations, Food, Automotive, Restaurants, Sandwiches, Convenience Stores, Coffee & Tea",Narberth,40.0122256739,-75.2619556997,PA,3.0,13,United States,"Narberth, PA, United States"
i9eMSNpOA8BfHGZrM-9sZg,Kung Fu Tea,"Bubble Tea, Juice Bars & Smoothies, Food, Coffee & Tea",Cherry Hill,39.8892597,-75.0158522,NJ,4.5,10,United States,"Cherry Hill, NJ, United States"
wDE1AfRVCKUL11hKehQEfQ,Cafe with Soul,"Breakfast & Brunch, Restaurants, Soul Food, Cafes, Food",Doylestown,40.3320849,-75.1305488,PA,3.5,26,United States,"Doylestown, PA, United States"
w8C_pRQvdIXQ5VRWlW2M3w,The Human Bean,"Juice Bars & Smoothies, Bagels, Coffee & Tea, Food",Reno,39.4921888,-119.7886223687,NV,4.5,37,United States,"Reno, NV, United States"
iapJoe3OzxeZqOGUJxnG3w,Fresh Healthy Cafe,"Cafes, Juice Bars & Smoothies, Restaurants, Fast Food, Food",Sherwood Park,53.5568884242,-113.2741134955,AB,3.5,8,Canada,"Sherwood Park, AB, Canada"
lo2VbA7Lwzu3i23pQpmzlw,Starbucks,"Food, Coffee & Tea",Gloucester Township,39.78403,-75.05207,NJ,3.0,15,United States,"Gloucester Township, NJ, United States"
0oogOBGXNj39Wnl2SKoe0w,Breakfast Club,"Restaurants, Breakfast & Brunch, Coffee & Tea, Food",Port Richey,28.3052669,-82.7011217,FL,4.5,80,United States,"Port Richey, FL, United States"
aJpDjaMVhWZRLdwZtqQjEg,T.H.I.S. Place,"Ice Cream & Frozen Yogurt, Vietnamese, Desserts, Food, Coffee & Tea, Restaurants",Edmonton,53.5460723,-113.5012494,AB,4.5,24,Canada,"Edmonton, AB, Canada"
ws-gbVjt56zCQC-CR5pjTQ,Dunkin',"Coffee & Tea, Bagels, Ice Cream & Frozen Yogurt, Food, Donuts",Ruskin,27.7139046,-82.3764519,FL,2.5,29,United States,"Ruskin, FL, United States"
lYxKXvDZGX9a3RwGuu0tPA,NY Bagel Cafe & Deli,"Restaurants, Coffee & Tea, Delis, Bagels, Food",Springfield,39.9245288,-75.3392149,PA,3.0,6,United States,"Springfield, PA, United States"
0zH0l4Jbf-oove3cLvrFOg,Vecchia Osteria,"American (New), Italian, Restaurants, Event Planning & Services, Food, Coffee & Tea, Caterers",Newtown,40.2280271,-74.9401945,PA,4.0,359,United States,"Newtown, PA, United States"
kgMEBZG6rjkGeFzPaIM4MQ,McDonald's,"Fast Food, Food, Restaurants, Coffee & Tea, Burgers",Philadelphia,39.9394402,-75.1668049,PA,2.0,55,United States,"Philadelphia, PA, United States"
EzHUZ4OqRKASptcx4qiYjA,Cafe Brasil,"Cafes, Restaurants",Saint Louis,38.6100525,-90.3636773,MO,2.5,8,United States,"Saint Louis, MO, United States"
bc3K8KvLkLNu_XU3RkeeeA,LeBuzz Caffe,"Breakfast & Brunch, Restaurants, Salad, Sandwiches, Coffee & Tea, Food",Tucson,32.260933,-110.891826,AZ,4.0,33,United States,"Tucson, AZ, United States"
vMD5bn1mbL18spr7Mmzlyg,Starbucks,"Food, Coffee & Tea",Marrero,29.880049,-90.098297,LA,2.5,50,United States,"Marrero, LA, United States"
ZyyExneJPXjci7yc2CGAPQ,Cups & Chairs,"Coffee & Tea, Food",Philadelphia,39.940311,-75.15099,PA,4.5,80,United States,"Philadelphia, PA, United States"
i7WnyDXKpT-mPaHEMY-HcQ,Harvest Coffee Roastery,"Sandwiches, Restaurants, Bagels, Coffee Roasteries, Coffee & Tea, Food",Voorhees Township,39.8514104,-74.9997241,NJ,4.0,13,United States,"Voorhees Township, NJ, United States"
cwvpVlg5BE2XXRWTHe3p9w,McDonald's,"Food, Burgers, Coffee & Tea, Fast Food, Restaurants",Sun City Center,27.7137051861,-82.3929427564,FL,2.0,24,United States,"Sun City Center, FL, United States"
bwlSGCjYLNwzXVD9CB_8EA,Hugs & Yogurt Cafe,"Ice Cream & Frozen Yogurt, Cafes, Juice Bars & Smoothies, Coffee & Tea, Food, Restaurants, Desserts",Willow Grove,40.1478414,-75.1280399,PA,4.0,15,United States,"Willow Grove, PA, United States"
XQfwVwDr-v0ZS3_CbbE5Xw,Turning Point of North Wales,"Restaurants, Breakfast & Brunch, Food, Juice Bars & Smoothies, American (New), Coffee & Tea, Sandwiches",North Wales,40.2101961875,-75.2236385919,PA,3.0,169,United States,"North Wales, PA, United States"
6WJ-dFE9axF2o55NQWrNgA,Tinker Coffee,"Food, Coffee & Tea, Breakfast & Brunch, Restaurants, Coffee Roasteries",Indianapolis,39.7148812,-86.2974891,IN,3.5,10,United States,"Indianapolis, IN, United States"
Bb3F76xkJrA-IwXLNK52RQ,Alchemy Coffee,"Food, Coffee & Tea",Philadelphia,39.9511237,-75.1755163,PA,5.0,19,United States,"Philadelphia, PA, United States"
-3-6BB10tIWNKGEF0Es2BA,The 81 Hong Kong Cafe,"Coffee & Tea, Asian Fusion, Food, Bubble Tea, Hong Kong Style Cafe, Taiwanese, Restaurants, Chinese",Tucson,32.2885403,-110.9631443,AZ,4.0,133,United States,"Tucson, AZ, United States"
nIE7ph1w_bttQMJQx5hUEQ,D-Town Bar & Grill,"Sports Bars, Nightlife, American (Traditional), Breakfast & Brunch, Cafes, Restaurants, Burgers, Bars",Dunedin,28.0192509782,-82.774851719,FL,3.0,91,United States,"Dunedin, FL, United States"
N7wYxm84QtcqTJZfGWpxzw,McDonald's,"Food, Restaurants, Fast Food, Burgers, Coffee & Tea",Franklin,35.9453792141,-86.8237428367,TN,2.5,24,United States,"Franklin, TN, United States"
aqubLw9IW03svL_uDXNJ8A,McDonald's,"Food, Burgers, Fast Food, Restaurants, Coffee & Tea",Florissant,38.8107873585,-90.2969466057,MO,1.5,11,United States,"Florissant, MO, United States"
WJIc6ZlR-pd9W-Vt-rRtzA,Anani Bistro,"American (New), Juice Bars & Smoothies, Coffee & Tea, Wine Bars, Restaurants, Cafes, Nightlife, Food, Bars, Acai Bowls",Gulfport,27.7389646,-82.7075848,FL,4.5,17,United States,"Gulfport, FL, United States"
SNYpn2BdTbz8QrrfH8rvdw,Wawa,"Restaurants, Sandwiches, Food, Delis, Grocery, Coffee & Tea",Bala Cynwyd,40.0185596288,-75.2403088108,PA,2.0,12,United States,"Bala Cynwyd, PA, United States"
8uF-bhJFgT4Tn6DTb27viA,District Donuts Sliders Brew,"Food, Donuts, Burgers, American (Traditional), Coffee & Tea, Restaurants",New Orleans,29.9294259,-90.0770687,LA,4.5,2062,United States,"New Orleans, LA, United States"
Fr7An-N0iyNXOPDaoPEzHw,Dunkin',"Donuts, Coffee & Tea, Food",Land O Lakes,28.2606135,-82.47462,FL,2.0,11,United States,"Land O Lakes, FL, United States"
f8xDi3rajxvIqS73N93Afw,Guavaberry Foods & Drinks ,"Delis, Convenience Stores, Restaurants, Cafes, Food",Philadelphia,39.938371,-75.1501031,PA,4.0,13,United States,"Philadelphia, PA, United States"
Rl7W2JPAUWFo2ZZdVeGAWA,Koffee Korner Cafe,"Restaurants, Food, Coffee & Tea, Sandwiches, Breakfast & Brunch, Cafes",Lansdale,40.2419927,-75.2829764,PA,3.5,59,United States,"Lansdale, PA, United States"
A0F-h3xJm_6gHDKcDQwSrQ,Capogiro Gelato,"Pizza, Restaurants, Gelato, Coffee & Tea, Ice Cream & Frozen Yogurt, Food",Philadelphia,39.9541715545,-75.2013800841,PA,4.0,252,United States,"Philadelphia, PA, United States"
NyV_2EGhs-YHYYVmZRYmOQ,McDonald's,"Coffee & Tea, Fast Food, Food, Burgers, Restaurants",Woodstown,39.6470143366,-75.3344234117,NJ,1.5,14,United States,"Woodstown, NJ, United States"
mKZEuPNLVe4yRL0UfxFPTg,Season's Fresh,"Modern European, American (New), Farmers Market, Cafes, Restaurants, American (Traditional), Breakfast & Brunch, Food",Tampa,28.0812683681,-82.4279611613,FL,4.5,104,United States,"Tampa, FL, United States"
Jn5nZ0b-cdBS2xHnF4msug,McDonald's,"Restaurants, Fast Food, Burgers, Coffee & Tea, Food",Belleville,38.544739774,-90.0519396365,IL,1.5,12,United States,"Belleville, IL, United States"
wnjFEC-w0qWnyDnO8k1RpA,Nectar Urban Cantina,"Coffee & Tea, New Mexican Cuisine, Restaurants, Tacos, Acai Bowls, Food, Nightlife, Mexican, Bars, Juice Bars & Smoothies",Nashville,36.16813138,-86.6804685,TN,4.5,390,United States,"Nashville, TN, United States"
duf2PORLOL6it1dTGhSnKA,Junes Breakfast,"Breakfast & Brunch, Restaurants, Coffee & Tea, Food, Sandwiches, American (New)",Philadelphia,39.9850064107,-75.246888042,PA,2.5,20,United States,"Philadelphia, PA, United States"
57WmsMG9ApjYT7zNNX0YYw,Quick Chek,"Coffee & Tea, Food, Convenience Stores, Drugstores, Shopping",Ewing,40.2512333914,-74.7770035467,NJ,2.0,6,United States,"Ewing, NJ, United States"
VzKca5jeWbfDeqzZZRElzQ,California Shakes & Juice Bar,"Food, Ice Cream & Frozen Yogurt, Juice Bars & Smoothies, Coffee & Tea",Deptford Township,39.8315323,-75.0979797,NJ,5.0,6,United States,"Deptford Township, NJ, United States"
DZdE09qqCcX7Atf3Df7Yqg,The Urban Juicer,"Breakfast & Brunch, Food, Salad, Juice Bars & Smoothies, Acai Bowls, Restaurants, Coffee & Tea",Nashville,36.1521963,-86.8351768,TN,3.5,27,United States,"Nashville, TN, United States"
WrR6yPcE2Pf-zFR5W9vPxg,Coco Fresh Tea and Juice,"Coffee & Tea, Juice Bars & Smoothies, Food",Edmonton,53.522729,-113.627153,AB,4.0,10,Canada,"Edmonton, AB, Canada"
IoHOUGETebGrG3oDGSoAdg,Dunkin',"Coffee & Tea, Donuts, Food",Sewell,39.7646375,-75.0850074,NJ,2.0,14,United States,"Sewell, NJ, United States"
zBHAoHU-SD7wECkKpTGImg,First Watch,"Restaurants, American (Traditional), Cafes, Breakfast & Brunch",Oldsmar,28.0449208,-82.68053,FL,4.0,93,United States,"Oldsmar, FL, United States"
pMK3BNK9Mk0jopvoVACwbA,Dunkin',"Donuts, Coffee & Tea, Food",Cherry Hill,39.9469351,-75.0272762,NJ,3.5,11,United States,"Cherry Hill, NJ, United States"
JeoIxdzt5E3QXT1KHXR2oA,JB'S Island Cafe,"Sandwiches, Cafes, Food, Restaurants, Breakfast & Brunch",Clearwater,27.9796975,-82.8266376,FL,4.0,37,United States,"Clearwater, FL, United States"
iyW-OrFw2YnRxsoeQ36skg,The Larder,"Pretzels, Candy Stores, Food, Specialty Food, Herbs & Spices, Coffee & Tea",Doylestown,40.3328382385,-75.1296401024,PA,4.5,7,United States,"Doylestown, PA, United States"
Fbq_tc6W5uNmQNrInXpd5w,6 North Cafe,"Cafes, Restaurants, Sandwiches, Gluten-Free",Ballwin,38.6204937228,-90.5252278585,MO,4.0,91,United States,"Ballwin, MO, United States"
ZLW8u1n776S7maN4KhN6jg,Riffs Cafe at Highland Ridge,"Cafes, Restaurants",Nashville,36.1482979,-86.689828,TN,4.0,18,United States,"Nashville, TN, United States"
Uq1o6DXKALmjdElXp4mEtQ,Capricho’s,"Breakfast & Brunch, Restaurants, Dominican, Caribbean, Food, Coffee & Tea",Tampa,28.033191048,-82.4076666194,FL,5.0,8,United States,"Tampa, FL, United States"
GZdflq6wvOXyOtSFThqNmA,Corner Cafe,"Coffee & Tea, Food, Cafes, Restaurants",Royersford,40.196183,-75.53241,PA,2.5,30,United States,"Royersford, PA, United States"
JkyEYN3pCk1B7qRuXAUX4g,Ann's Market,"Delis, Food, Coffee & Tea, Restaurants",Eddystone,39.859732246,-75.3426356432,PA,4.0,5,United States,"Eddystone, PA, United States"
s4VzQaUCrgwPuViQYOqC2w,Ranch House Restaurant,"Restaurants, Food, Coffee & Tea, Breakfast & Brunch, American (Traditional), Diners",Tampa,27.9962535,-82.5670403,FL,3.5,39,United States,"Tampa, FL, United States"
IRkQtjBxgVEqAOdtjgi6hQ,Simply Done Donuts,"Caterers, Event Planning & Services, Coffee & Tea, Donuts, Food",Tampa,27.9260137,-82.5061947,FL,5.0,77,United States,"Tampa, FL, United States"
eaJCpC6IhYphj7bwCDHTwQ,Three Brothers Coffee,"Bagels, Sporting Goods, Outdoor Gear, Coffee & Tea, Cafes, Sandwiches, Food, Shopping, Internet Cafes, Restaurants",Nashville,36.1448084,-86.8122664,TN,4.5,249,United States,"Nashville, TN, United States"
3bmrxhqVpB5XCg-4j6y39A,McDonald's,"Restaurants, Coffee & Tea, Food, Burgers, Fast Food",Belleville,38.5175290922,-89.9490435503,IL,1.5,19,United States,"Belleville, IL, United States"
98mYebjHN_VXZapVm8Nmqg,SWEGS Kitchen - Mid-City,"Cafes, Burgers, Comfort Food, Restaurants, American (New), Sandwiches, Breakfast & Brunch, Pizza, Gluten-Free",New Orleans,29.9760651,-90.0996259,LA,4.0,67,United States,"New Orleans, LA, United States"
SpKppNFimODBt-BZ0c2WbA,Dunkin',"Coffee & Tea, Food, Donuts",Springfield,39.943857107,-75.3487932199,PA,4.0,10,United States,"Springfield, PA, United States"
89COhCW-cAD5-fTXPfXYTw,Strange Donuts,"Donuts, Cafes, Bagels, Food, Coffee & Tea, Restaurants",Maplewood,38.612197,-90.320003,MO,3.5,352,United States,"Maplewood, MO, United States"
j8NhrBzy1op0BfVGdSOiXQ,The Creperie Cafe,"Restaurants, Creperies, Coffee & Tea, Desserts, Cafes, Food, French",Boise,43.588937,-116.278166,ID,3.5,131,United States,"Boise, ID, United States"
cUYw6i8MF_2WEdd2d8t9yg,Starbucks,"Food, Coffee & Tea",Doylestown,40.321777,-75.130908,PA,2.5,31,United States,"Doylestown, PA, United States"
p24n1vScP_MHxJVPrao-jA,Cairdeas Coffee,"Food, Coffee & Tea",Saint Louis,38.6277365,-90.2932686,MO,4.0,14,United States,"Saint Louis, MO, United States"
3_kZ2pDiKJLZ9kGKKOWqdA,McDonald's,"Restaurants, Fast Food, Burgers, Coffee & Tea, Food",Eddystone,39.8658758188,-75.3417693079,PA,2.5,15,United States,"Eddystone, PA, United States"
1JxSgUivApwcRYFnXw23cQ,Natura Cafe Nashville,"Cafes, Restaurants, American (New)",Nashville,36.1642022,-86.7789669,TN,3.0,5,United States,"Nashville, TN, United States"
eqNutOMnPqKa9QDAY6KfEw,J'aime French Bakery,"Food, Juice Bars & Smoothies, Coffee & Tea, Restaurants, Bakeries, Cafes",Philadelphia,39.948081,-75.1608093,PA,4.5,310,United States,"Philadelphia, PA, United States"
P7oAQxDu8rapFn8QY0nmyA,LesbiVeggies,"Food, Vegetarian, Cafes, Vegan, Food Delivery Services, Gluten-Free, Event Planning & Services, Caterers, Restaurants",Audubon ,39.893852132,-75.0719857,NJ,4.5,52,United States,"Audubon , NJ, United States"
dwoqTu3q0D_T2UfT7cgHqw,Pia Urban Cafe & Market,"Bagels, Restaurants, Food, Cafes, Breakfast & Brunch, Sandwiches, Coffee & Tea",Indianapolis,39.7687205,-86.1153179,IN,5.0,40,United States,"Indianapolis, IN, United States"
L3u4I6wHtwMQJ-ZtvfrkkQ,McDonald's,"Burgers, Restaurants, Coffee & Tea, Food, Fast Food",Marana,32.424583,-111.043025,AZ,1.5,36,United States,"Marana, AZ, United States"
K51bVqlGcpTMDK3-SDkBeQ,Panera Bread,"Coffee & Tea, Breakfast & Brunch, Food, Salad, Bagels, Sandwiches, Bakeries, Restaurants, Soup",Nashville,36.1457641,-86.6682195,TN,2.5,80,United States,"Nashville, TN, United States"
dcpWZ6Yk_S0HqTlNBi8jiA,The Woodrack Cafe,"Food, Coffee & Tea, Restaurants, Desserts, Cafes",Edmonton,53.5124378,-113.5120394,AB,4.0,60,Canada,"Edmonton, AB, Canada"
GoX9xsurR2_UNsJTzZVkjQ,Eggroll Queen Cafe,"Restaurants, Vietnamese, Cafes",Chalfont,40.2711832,-75.2236348,PA,4.0,29,United States,"Chalfont, PA, United States"
CPFKi2lZJazP6IdtCdDDyg,Coffeebar,"Bars, Coffee & Tea, Restaurants, Cafes, Food, Nightlife, Breakfast & Brunch, Wine Bars, Sandwiches",Reno,39.5090563,-119.8149981,NV,4.5,676,United States,"Reno, NV, United States"
Wndkw2PinAwTgjeUJOTdCg,Old World Coffee Lab - Midtown,"Food, Coffee Roasteries, Coffee & Tea",Reno,39.519929,-119.811697,NV,4.5,286,United States,"Reno, NV, United States"
Envz99GhwMkfMg7LzDQeUQ,Buddy Brew - Hyde Park,"Coffee Roasteries, Food, Coffee & Tea",Tampa,27.9361321,-82.4761962,FL,4.0,148,United States,"Tampa, FL, United States"
7enJKZ9W2Vkq62ryK28taQ,Brenda's On the Causeway,"American (New), Breakfast & Brunch, Food, Restaurants, Coffee & Tea",Dunedin,28.0512415718,-82.7872824669,FL,4.0,62,United States,"Dunedin, FL, United States"
4oI4ikLPM6yDyw0QUrv53Q,Dunkin',"Coffee & Tea, Food, Donuts",Bristol,40.1117319,-74.8541626,PA,2.5,5,United States,"Bristol, PA, United States"
Y2jDVmMpRzQRg6HkNvQc8g,Smyrna Cafe,"Cafes, Sandwiches, American (New), Burgers, Breakfast & Brunch, Restaurants, American (Traditional), Fast Food",Smyrna,35.9416454189,-86.5283457257,TN,4.0,184,United States,"Smyrna, TN, United States"
x1zvE33a3y4lSKnbCsaAUA,Starbucks,"Restaurants, Coffee & Tea, Food",Cherry Hill,39.863652,-74.965009,NJ,3.5,25,United States,"Cherry Hill, NJ, United States"
pTpZS84EQhvZaxhq6SSWNw,Petite Clouet Cafe,"Sandwiches, Food, Salad, Coffee & Tea, Restaurants, Cafes",New Orleans,29.963326,-90.0454062,LA,4.5,18,United States,"New Orleans, LA, United States"
hdVqM-QngiiLRaMOvwXglQ,Boba Island Bubble Tea,"Juice Bars & Smoothies, Coffee & Tea, Food",Edmonton,53.549634,-113.4920997,AB,4.0,25,Canada,"Edmonton, AB, Canada"
M1t2pqGZmSIygY4880a_lQ,Tim Hortons,"Coffee & Tea, Food",Edmonton,53.6282772,-113.4114882,AB,2.0,6,Canada,"Edmonton, AB, Canada"
aG8XkIE_TMkr_QKSfaFBBg,Café Aqui,"Coffee & Tea, Food, Spanish, Restaurants",Tucson,32.2114127557,-110.9684149887,AZ,5.0,11,United States,"Tucson, AZ, United States"
LCS2sJH5S2kFquIL_FIqAg,Starbucks,"Food, Coffee & Tea",Sewell,39.750067,-75.076672,NJ,3.5,31,United States,"Sewell, NJ, United States"
ByEfpxv69HFqBYU3_r7HtA,Tinker Coffee,"Food, Coffee & Tea, Coffee Roasteries",Indianapolis,39.7883935,-86.18119,IN,5.0,46,United States,"Indianapolis, IN, United States"
qVVz1sRZVNH2xt865M64Dg,Dunkin',"Food, Bagels, Donuts, Coffee & Tea",Nashville,36.0733486147,-86.927092504,TN,2.0,43,United States,"Nashville, TN, United States"
pXb7pDVPayyElIqVlh1FOg,Brown Chicken Brown Cow,"Ice Cream & Frozen Yogurt, Coffee & Tea, Food",Philadelphia,39.9310268,-75.1478088,PA,4.0,5,United States,"Philadelphia, PA, United States"
14ZGwnDyydXdSBsLXpSUrA,Vientiane Café,"Vietnamese, Restaurants, Food, Thai, Coffee & Tea, Laotian",Philadelphia,39.9483087,-75.2178905,PA,4.0,304,United States,"Philadelphia, PA, United States"
1feuZITxuTrl9mr7V11kwQ,Frost Gelato,"Coffee & Tea, Desserts, Gelato, Food, Ice Cream & Frozen Yogurt",Tucson,32.3362875,-110.9781154,AZ,4.5,217,United States,"Tucson, AZ, United States"
cljHYek6vHtqUgUsnJBqmA,Pomme Cafe & Wine Bar,"French, Breakfast & Brunch, Food, Coffee & Tea, Nightlife, American (New), Wine Bars, Restaurants, Bars",Saint Louis,38.6514594,-90.3378156,MO,3.5,57,United States,"Saint Louis, MO, United States"
71q2UD1A7KL2q4AA8mPobQ,Urban Eats,"Pizza, Vegan, Food, Home Services, Coffee & Tea, Vegetarian, Real Estate, Sandwiches, Kitchen Incubators, Delis, Restaurants, American (New), Southern, Bakeries",Saint Louis,38.5808008,-90.2410679,MO,4.0,88,United States,"Saint Louis, MO, United States"
uGqgf0SNirwrezTrv3GLJQ,Parts Guru,"Home & Garden, Professional Services, Appliances & Repair, Food, Coffee & Tea, Local Services, Appliances, Shopping",Lansdale,40.2429223,-75.2846952,PA,3.5,14,United States,"Lansdale, PA, United States"
H3p3b8nbB3OtIfQyQGKDkg,Eet Gud Bakery,"Bakeries, Donuts, Food, Delis, Restaurants, Coffee & Tea",Trenton,40.228034,-74.709329,NJ,4.5,78,United States,"Trenton, NJ, United States"
9XpU6r6ATXSWYfbU7kibaQ,Passero's Coffee Roasters,"Coffee & Tea, Restaurants, Food, Coffee Roasteries, Sandwiches",Philadelphia,39.9542012,-75.1674658,PA,4.5,91,United States,"Philadelphia, PA, United States"
sD2yBIzp0SNYRMD4QfH9Jw,Starbucks,"Food, Coffee & Tea",Philadelphia,39.96651,-75.140377,PA,2.5,13,United States,"Philadelphia, PA, United States"
g-0-_hPz-yr_f4gBFbX2Ow,Kim's Cuban Sandwich Shop,"Food, Latin American, Restaurants, Coffee & Tea, Food Delivery Services, Chicken Wings, Sandwiches, Cuban",Seffner,27.981183,-82.29767,FL,4.0,39,United States,"Seffner, FL, United States"
Zm3X8i9GsYaxdWHlI-WQwg,Eleven Cafē,"Coffee & Tea, Restaurants, Food, Cafes, Bubble Tea",Tucson,32.2226061406,-110.9721927976,AZ,5.0,21,United States,"Tucson, AZ, United States"
yfL0PSbSPeOb5QQ5uvGjrw,Hy-Ho Cafe,"Cafes, Restaurants",Belleville,38.502124,-89.985367,IL,3.0,5,United States,"Belleville, IL, United States"
sdUQjlWN9y6yowVcvqomnw,La Spezia Italian Cafe,"Restaurants, Cafes, Italian",Nashville,36.0464907,-86.7133917,TN,3.0,12,United States,"Nashville, TN, United States"
GvRA736fSqNZPe_OJRCt-w,Pranzo Jersey Italian Cafe,"Food, Restaurants, Coffee & Tea, Delis",Nashville,36.1524547,-86.7923114,TN,4.0,6,United States,"Nashville, TN, United States"
EQ-TZ2eeD_E0BHuvoaeG5Q,Milktooth,"Beer, Wine & Spirits, Cafes, Coffee & Tea, Restaurants, Food, Breakfast & Brunch, American (New)",Indianapolis,39.7591692208,-86.146494347,IN,4.0,1379,United States,"Indianapolis, IN, United States"
JG0MsBKH1blxSzOgg2HjQA,Smalls Tea and Coffee,"Coffee & Tea, Food",Saint Louis,38.593408,-90.2263656,MO,5.0,5,United States,"Saint Louis, MO, United States"
bjhCtlYHrkgA5Ku8l-rB3g,Our Daily Bread,"Restaurants, Cafes, Breakfast & Brunch, Bakeries, Food",Santa Barbara,34.435812,-119.725001,CA,3.5,106,United States,"Santa Barbara, CA, United States"
ffvS2BlFwQra5FTPNk5N2g,Arber Cafè,"Cafes, Ethnic Food, Specialty Food, Italian, Desserts, Food, Restaurants, Coffee & Tea, Mediterranean",Saint Louis,38.5690797,-90.2866399,MO,4.5,18,United States,"Saint Louis, MO, United States"
7YiLEuHuUONZrMPT0OxXUQ,McDonald's,"Fast Food, Restaurants, Burgers, Coffee & Tea, Food, American (Traditional)",Reno,39.530632,-119.814276,NV,1.5,89,United States,"Reno, NV, United States"
J7TZeIXaJFgrSIZzAjQMsw,Starbucks,"Coffee & Tea, Food",Tucson,32.2962914,-110.9736483,AZ,3.5,6,United States,"Tucson, AZ, United States"
P3qii5-Hch2tDd1e59znXQ,Franci's Cafe,"Food, Restaurants, Cuban, Cafes",Tampa,28.0408259,-82.5264812,FL,4.5,34,United States,"Tampa, FL, United States"
aI2w94F3TvIuPTcflKVCJQ,Honeydeux,"Juice Bars & Smoothies, Coffee & Tea, Salad, Cafes, Restaurants, Bubble Tea, Food",New Orleans,29.931227,-90.073987,LA,3.5,88,United States,"New Orleans, LA, United States"
CxoRg-ZcXdpqXWmUJliYog,McDonald's,"Restaurants, Food, Fast Food, Coffee & Tea, Burgers",Hudson,28.3316185901,-82.6584090292,FL,2.5,28,United States,"Hudson, FL, United States"
XYaOXB1i1zT2zAWreYbX0g,Blue Collar Coffee Co.,"Coffee & Tea, Breakfast & Brunch, Food, Bakeries, Restaurants",Indianapolis,39.7790868,-86.1433955,IN,3.5,19,United States,"Indianapolis, IN, United States"
4u4njx79dMrXNhbRFHjG8A,HK NOLA,"Food, Kosher, Caterers, Desserts, Organic Stores, Restaurants, Juice Bars & Smoothies, Bakeries, Religious Organizations, Event Planning & Services, Cafes, American (New)",New Orleans,29.9450835,-90.1261013,LA,3.5,22,United States,"New Orleans, LA, United States"
y8R6_RZsBO-b__bJaQjuaw,Factory Donuts,"Breakfast & Brunch, Coffee & Tea, Restaurants, Donuts, Food",Newtown,40.2340222488,-74.9426154439,PA,4.0,34,United States,"Newtown, PA, United States"
j9YkV3Rw74YKXABDk7IALg,Suncraft Beverages,"Food, Gift Shops, Chocolatiers & Shops, Specialty Food, Flowers & Gifts, Shopping, Coffee & Tea",Tucson,32.235298,-110.85968,AZ,5.0,5,United States,"Tucson, AZ, United States"
-utd1de-UUgQKZE4VHVLlw,Superstitions Java,"Food, Coffee & Tea, Coffee Roasteries",Reno,39.6041507,-119.8355587,NV,4.5,61,United States,"Reno, NV, United States"
kf8HXRAZxtC7xVR0Tg-rhA,Num Num Boba,"Food, Coffee & Tea, Bubble Tea, Juice Bars & Smoothies, Shaved Ice",Reno,39.5275583,-119.8859044,NV,4.5,114,United States,"Reno, NV, United States"
GOSVLhjUT6TnrPhkkmDOpw,Vineyards Cafe,"Coffee & Tea, Cafes, Food, Creperies, Internet Cafes, Restaurants, Breakfast & Brunch",Philadelphia,39.969939,-75.163026,PA,4.5,192,United States,"Philadelphia, PA, United States"
lrARqZZdNhkeH6o6-hP4ZQ,Old Road Coffee,"Coffee & Tea, Food",New Orleans,29.971271,-90.072492,LA,4.5,20,United States,"New Orleans, LA, United States"
h85b3MFPWyaopMBy8DpBpA,Ron's Caribbean Cuisine,"Restaurants, Food, Ethnic Food, Cafes, Caribbean, Specialty Food",Philadelphia,40.0407573,-75.1448014,PA,4.0,142,United States,"Philadelphia, PA, United States"
kUR59XFQps7CwVlo43wIlg,The Spark,"Coffee Roasteries, Food, Coffee & Tea, Bakeries",Speedway,39.7853369168,-86.2412416294,IN,4.5,20,United States,"Speedway, IN, United States"
w_SsLvj6Xir_B4OQv6v8OA,Honey Baked Ham Company,"Event Planning & Services, Caterers, Food, American (Traditional), Meat Shops, Restaurants, Delis, Cafes, Sandwiches, Food Delivery Services, Desserts, Salad, Specialty Food",Indianapolis,39.9259065566,-86.2273496389,IN,2.5,8,United States,"Indianapolis, IN, United States"
5QefK7gbedeBiqsYJW54Bw,Cafe Du Monde City Park,"Coffee & Tea, Food",New Orleans,29.9852674718,-90.095134601,LA,4.0,130,United States,"New Orleans, LA, United States"
Qg9Sx8RwqnpYKQeSjfPh2w,Le Mouton Noir Bakehouse,"Food, Restaurants, Cafes, Bakeries",Tampa,27.95127,-82.446107,FL,3.5,35,United States,"Tampa, FL, United States"
NKnwvuJygWPC42qycr6Hwg,Mano's Po-Boys,"Seafood, Restaurants, Sandwiches, American (New), Cafes, Breakfast & Brunch, Southern",Metairie,29.981498,-90.2117653,LA,4.5,77,United States,"Metairie, LA, United States"
7KFWWjzHOSBl9HDVXkyusQ,Wawa,"Restaurants, Sandwiches, Gas Stations, Coffee & Tea, Automotive, Convenience Stores, Food",Mount Ephraim,39.8929548,-75.0912428,NJ,3.5,16,United States,"Mount Ephraim, NJ, United States"
zxuVnNVAUm16Sro0dS_lmg,Roundabout Grill,"Breakfast & Brunch, American (New), Restaurants, Coffee & Tea, Food",Reno,39.5278513,-119.8143374,NV,4.0,244,United States,"Reno, NV, United States"
PNPREi-W9kVr37KWqD11rg,The Bodacious Bean,"Coffee & Tea, Food",Boise,43.644399,-116.2419468,ID,4.5,9,United States,"Boise, ID, United States"
XAaXtqL1_HsI2t6FEIrA8Q,Living Room- Southampton,"Bakeries, Sandwiches, Restaurants, Coffee & Tea, Food",St. Louis,38.5928332,-90.2913927,MO,4.5,5,United States,"St. Louis, MO, United States"
5wnGMB8tXhNvGcbhPJeeVw,7-Eleven,"Gas Stations, Automotive, Gas Stations, Food, Coffee & Tea, Convenience Stores, Service Stations",New Port Richey,28.2254315565,-82.6902160048,FL,1.5,5,United States,"New Port Richey, FL, United States"
89VqFJf3COkgb6dL2AqXhg,Honey Baked Ham Company,"Sandwiches, Cafes, Food, Restaurants, Delis, Caterers, Specialty Food, Event Planning & Services, Meat Shops",Tucson,32.3353660148,-110.9761994845,AZ,3.5,15,United States,"Tucson, AZ, United States"
wi4F4NUvxn7UWHvQ1Iiz7w,Annex,"Restaurants, Convenience Stores, Breakfast & Brunch, Cafes, Themed Cafes, Food",Saint Petersburg,27.7770193148,-82.6317201189,FL,3.5,46,United States,"Saint Petersburg, FL, United States"
2gTnSpYBmg_5JubGpCtSQQ,McDonald's,"Coffee & Tea, Food, Burgers, Fast Food, Restaurants",Fishers,39.9276258761,-86.0256541474,IN,2.0,41,United States,"Fishers, IN, United States"
37yDMpWI6HBO2iW8slv7_Q,Tutti Frutti Frozen Yogurt,"Juice Bars & Smoothies, Coffee & Tea, Restaurants, Ice Cream & Frozen Yogurt, Food, American (New)",University City,38.6592269326,-90.338040106,MO,4.0,52,United States,"University City, MO, United States"
-V0vIgo6196MDn_x3ZaYmA,La Creperie Cafe,"Restaurants, Cafes, Creperies",Philadelphia,39.9506242,-75.1697297,PA,3.5,146,United States,"Philadelphia, PA, United States"
YPnksHT2DQA0AhcxP6udxw,Corner Bakery,"Restaurants, Food, Cafes, Bakeries, Italian",King of Prussia,40.08705,-75.395706,PA,3.5,63,United States,"King of Prussia, PA, United States"
-ksLHy9XXZVYuIVowdRc_w,Shiraz Wine Cafe',"American (New), Tapas Bars, Cafes, Restaurants",Carmel,39.978529,-86.131936,IN,2.5,39,United States,"Carmel, IN, United States"
y0pfoNQOyrb98aEIdH6cnA,McDonald's,"Restaurants, Burgers, Fast Food, Coffee & Tea, Food",Morrisville,40.2104139103,-74.7951225,PA,2.0,20,United States,"Morrisville, PA, United States"
kLS3Sth5HvO0IjrXCCvXxA,Wawa,"Food, Automotive, Convenience Stores, Coffee & Tea, Gas Stations, Sandwiches, Restaurants",Philadelphia,39.953351,-75.172624,PA,2.5,45,United States,"Philadelphia, PA, United States"
hr1XaVzp6htS41LjwKjIbQ,Stella Maris Restaurant & Hookah Lounge,"Food, Cafes, Middle Eastern, Restaurants",Arabi,29.9594566,-89.9931219,LA,4.5,78,United States,"Arabi, LA, United States"
vDhOjSNfgA4eE1Rj88-XDA,Safehouse,"Coffee & Tea, Nightlife, Restaurants, Pool Halls, Food",Tucson,32.235893,-110.906672,AZ,3.5,23,United States,"Tucson, AZ, United States"
TMT9U2da4ewGbk38X54KJA,Hackett's Causeway Cafe and Creamery,"Restaurants, Coffee & Tea, Pizza, Food, Ice Cream & Frozen Yogurt",Dunedin,28.0489350817,-82.7799664065,FL,4.5,102,United States,"Dunedin, FL, United States"
Yll7kUVI7j0gArBMQKpEaQ,High Brow Coffee + Tea,"Breakfast & Brunch, Food, American (Traditional), Ice Cream & Frozen Yogurt, Desserts, Restaurants, Coffee & Tea, Bakeries, Cafes",Franklin,35.929464,-86.919329,TN,4.0,125,United States,"Franklin, TN, United States"
9_m_iA3VAqGBJEW5XLc-5w,The Cuban Sandwich Shop,"Food, Restaurants, Cuban, Coffee & Tea, Cafes, Sandwiches",Indianapolis,39.906797,-86.2182121,IN,4.5,506,United States,"Indianapolis, IN, United States"
FYw5uf26ry8-MuPKD10z0Q,Josef's Vienna Bakery & Cafe,"Grocery, Desserts, Breakfast & Brunch, Food, Bakeries, Restaurants, Cafes, Coffee & Tea, Sandwiches",Reno,39.4920598234,-119.8060837054,NV,4.0,382,United States,"Reno, NV, United States"
59fWFpyDg01BTEH-Hh6jdw,McDonald's,"Food, Coffee & Tea, Fast Food, Burgers, Restaurants",Claymont,39.794113,-75.4673805,DE,1.5,25,United States,"Claymont, DE, United States"
U3ymuxVlD8yPVbJZbYqzhQ,Mokka Kaffeehaus,"Restaurants, Food, Coffee & Tea, Breakfast & Brunch",Columbia,38.4458936,-90.2195384,IL,3.0,6,United States,"Columbia, IL, United States"
HHWTWs8sa7cE3ksH3_BCTw,Fa Caldo Caffe,"Coffee & Tea, American (New), Restaurants, Food",Philadelphia,39.9280696,-75.1602342,PA,4.5,19,United States,"Philadelphia, PA, United States"
n6zEr09OC7WigrxfQ4rjQQ,Rickenbacker's,"Beer Bar, Sandwiches, Nightlife, Bars, Cafes, Restaurants",Tampa,27.8534777946,-82.4822765156,FL,4.0,5,United States,"Tampa, FL, United States"
Y1QKeVZSvhnAZnO26SK6QQ,Nordstrom Grill,"Cocktail Bars, American (New), Restaurants, Nightlife, Bars, Comfort Food, Cafes",Nashville,36.1065328983,-86.816454,TN,3.5,33,United States,"Nashville, TN, United States"
eOeKgRKbs-iAsIEOmHTrYg,McDonald's,"Burgers, Food, Coffee & Tea, Restaurants, Fast Food",Upper Darby,39.9573732697,-75.2576498687,PA,1.0,10,United States,"Upper Darby, PA, United States"
lTqAGjcQHeY3eTXBTIcvkA,Frothy Monkey,"Food, Restaurants, Breakfast & Brunch, Coffee & Tea, Wine Bars, Nightlife, Bars",Nashville,36.1733768,-86.7396448,TN,4.0,45,United States,"Nashville, TN, United States"
q2s15GwZr6NdTH-HtSirsA,Speedway Eatery,"Restaurants, Food, Food Trucks, Food Delivery Services, Cafes",Saint Louis,38.7884682,-90.403094,MO,3.5,7,United States,"Saint Louis, MO, United States"
Ppmdzznk7jR8YRyei79_Xg,Almaz Cafe,"Bars, Ethiopian, Coffee & Tea, Nightlife, Sandwiches, Breakfast & Brunch, Food, Restaurants",Norristown,40.1145214889,-75.3452384037,PA,3.5,11,United States,"Norristown, PA, United States"
3RtMd3VZ21WL5auDr6Jp9A,Cafe Zoma,"Food, Coffee & Tea",Santa Barbara,34.4209873,-119.7012134,CA,4.0,27,United States,"Santa Barbara, CA, United States"
G047PcbKKb0YHwtpfZE8yg,Franks Restaurant,"Breakfast & Brunch, Cafes, American (New), Salad, Restaurants, Sandwiches",Alton,38.9225356072,-90.1721286994,IL,3.5,32,United States,"Alton, IL, United States"
8PjqEoQoQKhmsvSDF9dHQA,Dunkin',"Food, Coffee & Tea, Donuts",Kennett Square,39.842996035,-75.7298851032,PA,2.5,8,United States,"Kennett Square, PA, United States"
gq4zw-ru_rkZ2UBIanaZFQ,McDonald's,"Fast Food, Food, Burgers, Coffee & Tea, Restaurants",Philadelphia,39.9720955382,-75.1588091254,PA,1.0,38,United States,"Philadelphia, PA, United States"
-sRtgVuwRz7JJQaHiLV9zw,Dunkin',"Coffee & Tea, Food, Donuts",Philadelphia,39.979683,-75.2697307,PA,2.0,10,United States,"Philadelphia, PA, United States"
ABp0BSeiYty6EpVW2ScO-w,Fleur-De-Lis Nutrition,"Food, Health Markets, Gluten-Free, Coffee & Tea, Juice Bars & Smoothies, Vitamins & Supplements, Restaurants, Specialty Food, Shopping",New Orleans,30.0202011,-90.1113103,LA,4.5,5,United States,"New Orleans, LA, United States"
caGpaptBP4BKJkpH5W6cvA,Bing's Boba Tea,"Food, Shaved Ice, Bubble Tea, Juice Bars & Smoothies, Coffee & Tea",Tucson,32.252543,-110.943666,AZ,4.0,218,United States,"Tucson, AZ, United States"
-6TttC-1-rf5gC0QHWrs_w,Goody's Cafe,"Restaurants, Donuts, Food, Coffee & Tea, Cafes, Breakfast & Brunch, Diners",Terrytown,29.880818,-90.0211886,LA,3.5,31,United States,"Terrytown, LA, United States"
OTBWyXkNsBYHqIlXJXnEDA,Starbucks,"Food, Coffee & Tea",Philadelphia,39.949485,-75.1673521,PA,3.0,39,United States,"Philadelphia, PA, United States"
EMti-iNn83SGp3z6LngDWQ,First Watch,"Restaurants, Breakfast & Brunch, Cafes, American (Traditional)",St.Ann,38.736872,-90.39882,MO,4.5,75,United States,"St.Ann, MO, United States"
VgsbZSm5NRaDg2ds_FDBrg,Deja Brew Laugh A Latte,"American (New), Wineries, Restaurants, Coffee & Tea, Food, Nightlife, Wine Bars, Bars, Arts & Entertainment, Breakfast & Brunch, Music Venues",Meridian,43.6112994,-116.3910318,ID,4.5,115,United States,"Meridian, ID, United States"
laBlOr7v6w7Sf5yxbHhAcA,Slow Hand Coffee Company,"Coffee & Tea, Food",Nashville,36.1549241,-86.781605,TN,4.0,43,United States,"Nashville, TN, United States"
9DhjKaR2f9wKATnUvxBAgg,McDonald's,"Coffee & Tea, Food, Burgers, Fast Food, Restaurants",Brandon,27.923798,-82.323313,FL,1.5,29,United States,"Brandon, FL, United States"
x975oi4VWOxHJWE6dwSPzw,Books-A-Million,"Books, Mags, Music & Video, Bookstores, Food, Coffee & Tea, Shopping",Brandon,27.9323708047,-82.326853969,FL,3.5,21,United States,"Brandon, FL, United States"
wunF8CkjYkARgCbGwYRm3A,Driftwood Cafe,"Restaurants, Pizza, Cafes, Sandwiches",St. Petersburg,27.7738335414,-82.6225407873,FL,4.0,18,United States,"St. Petersburg, FL, United States"
JE4gQjflWbg9eg3CSZvAVg,Stanley Service Bar,"Nightlife, Cocktail Bars, Sandwiches, Food, Coffee & Tea, Bars, Restaurants",New Orleans,29.9582117971,-90.0628599152,LA,4.5,7,United States,"New Orleans, LA, United States"
XfvJ2iEq0XmciWIJvelZZA,Cafe 29,"Sandwiches, Restaurants, Breakfast & Brunch, Coffee & Tea, Food",Nashville,36.0896708799,-86.8761394545,TN,2.0,11,United States,"Nashville, TN, United States"
zSEqhlaHqY8sIDxznturEQ,McDonald's,"Restaurants, Fast Food, Food, Burgers, Coffee & Tea",Fairless Hills,40.171540527,-74.8515835404,PA,1.5,32,United States,"Fairless Hills, PA, United States"
523KdtGRd_sx5YBRfvDJLQ,Orange Blossom Cafe & Bakery,"Bagels, Breakfast & Brunch, Caterers, Food, Desserts, Restaurants, Coffee & Tea, Bakeries, Event Planning & Services, Cafes",Riverton,40.0095844,-75.0127164,NJ,3.5,54,United States,"Riverton, NJ, United States"
ZFcE6HItnUzgGPM0Uxm-DQ,Pushing Pastry Cafe,"Cafes, Patisserie/Cake Shop, Restaurants, Food, Waffles, Comfort Food, Breakfast & Brunch",New Orleans,29.9407898,-90.1020423,LA,4.5,7,United States,"New Orleans, LA, United States"
1NJTnfFfLYnt8-p3iUoGOg,Starbucks,"Bakeries, Coffee & Tea, Food",Edmonton,53.5254208,-113.6164433,AB,4.0,5,Canada,"Edmonton, AB, Canada"
RPLPto1ejkyE8vsGOV5phg,McDonald's,"Burgers, Food, Fast Food, Coffee & Tea, Restaurants",Upper Darby,39.9597931076,-75.2875122428,PA,1.5,27,United States,"Upper Darby, PA, United States"
ulwns2OavT81v6zG-Sk6ng,Wawa,"Food, Automotive, Sandwiches, Convenience Stores, Coffee & Tea, Gas Stations, Restaurants",New Castle,39.69444,-75.598866,DE,3.0,8,United States,"New Castle, DE, United States"
HvFHRwDDu36nBGSyEv81WQ,McDonald's,"Fast Food, Burgers, Coffee & Tea, Food, Restaurants",Kennett Square,39.8423291687,-75.7296930161,PA,1.5,13,United States,"Kennett Square, PA, United States"
-yi4ks8BKZ-_xcJYT9WLjQ,Hippie Hi,"Local Flavor, Coffee & Tea, Food",Clearwater,27.9540206,-82.7959877,FL,4.0,11,United States,"Clearwater, FL, United States"
ToHu5wSC8LSMYigsSlkFfQ,HITEA,"Asian Fusion, Ramen, Cafes, Chinese, Bubble Tea, Restaurants, Food, Japanese",Chesterfield,38.6794186613,-90.5060517043,MO,4.0,115,United States,"Chesterfield, MO, United States"
O_V9eD3bne7DrZtNHT4Tfg,Perks Coffeehouse,"Food, Coffee & Tea",Trinity,28.1918774974,-82.6369483396,FL,4.0,8,United States,"Trinity, FL, United States"
8ZHMr31oBElXmaqSmZJs2Q,McDonald's,"Food, Fast Food, Coffee & Tea, Burgers, Restaurants",Trenton,40.2174128225,-74.7435072848,NJ,1.5,9,United States,"Trenton, NJ, United States"
K4TlU26IH19tM_VvTMnpyg,Rivista,"Cafes, Bakeries, Restaurants, Food",New Orleans,29.9208686,-90.0997285,LA,4.0,41,United States,"New Orleans, LA, United States"
Y9cp0wO7SeDn-kpT0Lt-LA,Sarah's Bagel Cafe Idaho,"Restaurants, Cafes",Boise,43.617047,-116.2035868,ID,4.5,21,United States,"Boise, ID, United States"
Y8IzgicQSkxNsewSzR7NLg,Foodwerx,"Food Delivery Services, Wedding Planning, Coffee & Tea, Event Planning & Services, Restaurants, Food, Caterers, Party & Event Planning",Cherry Hill,39.931255,-75.0511669,NJ,4.5,11,United States,"Cherry Hill, NJ, United States"
VU9rKbmrj_Oh1VLvUI_yZg,Community Coffee Company,"Food, Coffee & Tea",New Orleans,29.9777423,-90.0810828,LA,3.0,5,United States,"New Orleans, LA, United States"
IzKWd5VmKcwlxK9GWBuohA,Starbucks,"Food, Coffee & Tea",Brownsburg,39.861749,-86.393124,IN,4.0,8,United States,"Brownsburg, IN, United States"
B6zs6ywn7TfhOmmDtuWQkw,Farm a Sea Bistro & Crafthouse,"Beer Bar, Cafes, Bars, Pubs, Nightlife, American (New), Brasseries, Restaurants",Newark,39.6624417,-75.6636292,DE,3.0,28,United States,"Newark, DE, United States"
KYFJ7qh7bYYAsjnGrhH3NA,Bing's Boba Tea,"Bubble Tea, Coffee & Tea, Food, Juice Bars & Smoothies, Shaved Ice",Tucson,32.3246177,-111.0107186,AZ,4.0,182,United States,"Tucson, AZ, United States"
Z1whpjCi-3RiuBPUtdK44A,Angys’s Cafe And Ice Cream Parlor,"Breakfast & Brunch, Burgers, Food, Desserts, Restaurants, Coffee & Tea, Cafes, Pizza, Ice Cream & Frozen Yogurt",Warminster,40.1999487,-75.101936,PA,4.5,22,United States,"Warminster, PA, United States"
IjJSHYMgXV3ZQSAr0tn19A,Sip of Saigon,"Coffee & Tea, Restaurants, Food, Vietnamese, Cafes",Spanish Springs,39.577618851,-119.7223937288,NV,5.0,71,United States,"Spanish Springs, NV, United States"
xsbUN2133MlOmQlAqRPVtA,Starbucks,"Food, Coffee & Tea",Penns Grove,39.697987,-75.396719,NJ,2.5,28,United States,"Penns Grove, NJ, United States"
6HRbMeGq5Y4hqRkgXnG6Ig,Naviera Coffee Mills,"Restaurants, Food, Coffee & Tea",Tampa,27.9604795,-82.436308,FL,4.0,24,United States,"Tampa, FL, United States"
YaLZlatMJU_eXurZXtihHQ,Dunkin',"Coffee & Tea, Donuts, Food",Glendora,39.837242,-75.067963,NJ,2.5,12,United States,"Glendora, NJ, United States"
vdpxxb6fxjYtJMnW_V0GZg,Lucky Goat Coffeehouse,"Food, Coffee & Tea",Philadelphia,39.9725217939,-75.1792898199,PA,4.5,135,United States,"Philadelphia, PA, United States"
WZPCfTRiN4ipajP7gFfziA,The Centennial Cafe,"Restaurants, Coffee & Tea, Food, Breakfast & Brunch, Sandwiches",Philadelphia,39.9849894194,-75.2161406602,PA,3.5,26,United States,"Philadelphia, PA, United States"
hgdh0gKSczCIjLikWtZpGg,Trywith,"Restaurants, Specialty Food, Asian Fusion, Food Court, Food, Fast Food, Coffee & Tea",Mount Laurel,39.9199498,-74.9283212,NJ,4.5,14,United States,"Mount Laurel, NJ, United States"
g04aAvgol7IW8buqSbT4xA,Cafe Fleur De Lis,"Breakfast & Brunch, Coffee & Tea, Food, Restaurants",New Orleans,29.9544944572,-90.0665915385,LA,4.0,1865,United States,"New Orleans, LA, United States"
B3JF06ctShiYJeg1FyJ5jA,Remedy Cafe,"Indian, Desserts, Cafes, Restaurants, Food, Coffee & Tea, Nightlife, Lounges, Bars",Edmonton,53.5228042,-113.5117214,AB,3.5,127,Canada,"Edmonton, AB, Canada"
JOiDhBBiSu79PdPnYx87Xw,Healthies Fishers,"Juice Bars & Smoothies, Coffee & Tea, Food",Fishers,39.9506109,-86.0416383,IN,4.5,29,United States,"Fishers, IN, United States"
Gib553AC85MoMzQSusnc6w,Speedway,"Gas Stations, Coffee & Tea, Automotive, Food, Convenience Stores",Tucson,32.1184375,-110.771994,AZ,1.5,7,United States,"Tucson, AZ, United States"
JrlYnMIFLq2NWLk9EbM4AA,Clusters Handcrafted Popcorn,"Candy Stores, Specialty Food, Bakeries, Popcorn Shops, Food, Coffee & Tea, Desserts, Gelato",Doylestown,40.3106364,-75.1304804,PA,4.5,44,United States,"Doylestown, PA, United States"
6jNFUIKiCCKnLCpGJpkyrg,McDonald's,"Fast Food, Restaurants, Food, Coffee & Tea, Burgers",Philadelphia,40.0323183,-75.106562376,PA,1.0,22,United States,"Philadelphia, PA, United States"
6FvC6w810uf6O7Ocd6Wpog,Yolklore,"Food, Restaurants, Bakeries, Coffee & Tea, Caterers, Event Planning & Services, Burgers, Breakfast & Brunch",St. Louis,38.5624086279,-90.3668923776,MO,4.5,263,United States,"St. Louis, MO, United States"
rZIoDcsE7vsneLXRzkXlfQ,Tim Hortons,"Food, Coffee & Tea, Sandwiches, Bakeries, Donuts, Restaurants",St Albert,53.6420321719,-113.5763070271,AB,2.0,6,Canada,"St Albert, AB, Canada"
pt0SLWdKuqrv7KRMgpOhLw,Starbucks,"Food, Sandwiches, Coffee & Tea, Restaurants",Haddonfield,39.897906,-75.031543,NJ,3.5,38,United States,"Haddonfield, NJ, United States"
95Pw5mF_PMbfvXN_K-mXWQ,Summit Cakery & Cafe,"Cafes, Food, Bakeries, Restaurants, Desserts",Woodbury Heights,39.8125472,-75.1634761,NJ,3.5,39,United States,"Woodbury Heights, NJ, United States"
YJ4jzBFJU2EJhM-zatdLRQ,Dunkin',"Food, Donuts, Coffee & Tea",Philadelphia,40.0068644,-75.1230914,PA,1.0,6,United States,"Philadelphia, PA, United States"
HSb0mHv23zY42j2vcPtSyA,Maple Street Patisserie et Bistro,"Food, Bakeries, Restaurants, Cafes",New Orleans,29.9624698182,-90.1176114916,LA,4.0,6,United States,"New Orleans, LA, United States"
k920l7wHSjLZDJLvn-UfyQ,McArthur's Bakery Cafe,"Breakfast & Brunch, Delis, Restaurants, Desserts, Food, Cafes, Bakeries, Sandwiches",University City,38.655785,-90.306723,MO,3.5,22,United States,"University City, MO, United States"
Jubq4o59PS1Q3vyxBgrtQw,Rolling Stars,"Food Delivery Services, Restaurants, Breakfast & Brunch, Bagels, Food, Soup, Coffee & Tea",West Chester,39.954138,-75.616182,PA,4.0,47,United States,"West Chester, PA, United States"
hNH1ILskk1qu7TA0rBvvlw,Starbucks,"Food, Coffee & Tea",Indianapolis,39.665,-86.098961,IN,2.5,50,United States,"Indianapolis, IN, United States"
B2wSy1zQCdZgDXOkhAKGDQ,Embassy Suites by Hilton Tampa Downtown Convention Center,"Cafes, Hotels & Travel, Hotels, Restaurants, Event Planning & Services",Tampa,27.9423153,-82.4547605,FL,2.5,209,United States,"Tampa, FL, United States"
b-4xNydyGmdv2bGFOHTgdw,Garden Bakery,"Bakeries, Breakfast & Brunch, Chinese, Restaurants, Coffee & Tea, Food",Edmonton,53.5496061,-113.4928653,AB,3.5,45,Canada,"Edmonton, AB, Canada"
-7Rx5jVeQmlVoAU_oXrzew,McDonald's,"Burgers, Fast Food, Restaurants, Food, Coffee & Tea",Cherry Hill,39.9147636602,-75.0127789378,NJ,1.0,11,United States,"Cherry Hill, NJ, United States"
WwPPNhUpIsPhLumwravwKw,Millstone Cafe,"Soup, Cafes, Restaurants, Sandwiches, Arts & Entertainment, Museums",Chadds Ford,39.8701193,-75.5930734,PA,3.5,5,United States,"Chadds Ford, PA, United States"
3LQsW2WJ1pmnRgH23C6YiA,Cabin Coffee,"Food, Cafes, Coffee & Tea, Coffee Roasteries, Restaurants, Themed Cafes",Avon,39.7617852961,-86.4277279159,IN,4.5,64,United States,"Avon, IN, United States"
aEEC4D-RylmiUyephE5t_g,"Coffee, Lunch.","Food, Bakeries, Restaurants, Bagels, Sandwiches, Coffee & Tea",Nashville,36.1549013,-86.7818914,TN,4.0,54,United States,"Nashville, TN, United States"
eJYvM2Zy5BloOYGldWmAVw,Chateau Cafe,"Food, Cafes, Coffee & Tea, Restaurants",New Orleans,30.0202243,-90.1114674,LA,3.0,66,United States,"New Orleans, LA, United States"
9Udgv_7h8oj6NXq5hQeJow,Old Beverly Cafe In & Out,"Coffee & Tea, Food, Sandwiches, Restaurants, Cafes",Edmonton,53.5705074,-113.4021041,AB,4.0,9,Canada,"Edmonton, AB, Canada"
lZyINQz8hoGZk-WhqXy0Sw,Above The Salt Cafe,"Cafes, Cuban, Restaurants, Nightlife, Bars",Tampa,28.0250508,-82.4650148,FL,5.0,41,United States,"Tampa, FL, United States"
VxVQSJKTCx-5WFe-clKOaw,232 Corner Cafe,"American (New), Restaurants, Cafes",Richboro,40.2175122618,-75.0099894621,PA,4.5,28,United States,"Richboro, PA, United States"
1PMAO9O8iQ3gIZlPEaJN3g,One Stone Restaurant,"Cafes, Restaurants, American (New), Breakfast & Brunch",New Orleans,29.9525998,-90.0512591,LA,4.0,30,United States,"New Orleans, LA, United States"
VX7GkJDnhPG8NmrdO1V-6Q,First Watch,"American (Traditional), Breakfast & Brunch, Cafes, Restaurants",St. Petersburg,27.785663,-82.638323,FL,4.0,82,United States,"St. Petersburg, FL, United States"
rH0FgPdxWWhH4YFz4mempg,McDonald's,"Burgers, Fast Food, Food, Restaurants, Coffee & Tea",St. Louis,38.586257,-90.276034,MO,1.5,39,United States,"St. Louis, MO, United States"
eFvzHawVJofxSnD7TgbZtg,Good Karma Cafe,"Food, Cafes, Coffee & Tea, Restaurants",Philadelphia,39.9446092,-75.1578331,PA,4.0,249,United States,"Philadelphia, PA, United States"
WYPTqTbf7MHfxuHlIyZCkw,Chadds Cafe,"Breakfast & Brunch, Restaurants, Food, Coffee & Tea, Cafes",Chadds Ford,39.8726072,-75.5898675,PA,5.0,7,United States,"Chadds Ford, PA, United States"
7AAUjAvOS10dMx1F_QMaew,7-Eleven,"Coffee & Tea, Food, Convenience Stores",Reno,39.5270180913,-119.8033279181,NV,2.0,18,United States,"Reno, NV, United States"
vdoA5t_zL0nTTww1PQkTVw,Kung Fu Tea,"Bubble Tea, Juice Bars & Smoothies, Coffee & Tea, Food",Petersburg,27.7215055,-82.6806526,FL,3.5,9,United States,"Petersburg, FL, United States"
dj84zlrBW3CKjcH8vCkXZQ,Blueprint Coffee,"Food, Coffee & Tea, Coffee Roasteries",St Louis,38.5936486,-90.3013223,MO,4.5,70,United States,"St Louis, MO, United States"
HMQ1HMB6r__ol7tSaiNvfg,Yolk - Monument Circle,"American (Traditional), Restaurants, Breakfast & Brunch, Food, Coffee & Tea, Cafes",Indianapolis,39.769678,-86.156556,IN,3.5,104,United States,"Indianapolis, IN, United States"
I6L0Zxi5Ww0zEWSAVgngeQ,Cafe Beignet on Bourbon Street,"Sandwiches, Breakfast & Brunch, Cajun/Creole, Cafes, Food, Restaurants, Donuts",New Orleans,29.955845,-90.0684361,LA,3.5,1066,United States,"New Orleans, LA, United States"
ggJXlslLYndvE7n3hgJBCQ,Capital One 360 Café,"Financial Services, Food, Restaurants, Cafes, Banks & Credit Unions, Coffee & Tea",Wilmington,39.7496704,-75.5546354,DE,4.0,5,United States,"Wilmington, DE, United States"
5RzJ2bjU8bLSaN5SuiUpYA,Plat 99,"Event Planning & Services, Art Galleries, Hotels, Arts & Entertainment, Hotels & Travel, Lounges, Bars, Shopping, Food, Nightlife, Coffee & Tea",Indianapolis,39.761769,-86.154336,IN,4.5,206,United States,"Indianapolis, IN, United States"
v3cbEy9tUWqeVVHQM5ZZ4A,Harvinskins Seafood Market & Cafe,"Food, Seafood, Specialty Food, Restaurants, Cafes",Camden,39.9478269011,-75.0742394732,NJ,4.5,46,United States,"Camden, NJ, United States"
AjzEFdI4hheVodEJZLLJzA,Asados Al Carbon,"Colombian, Event Planning & Services, Latin American, Specialty Food, Food Delivery Services, Caterers, Ethnic Food, Barbeque, Cafes, Food, Soup, Breakfast & Brunch, Spanish, Restaurants",Tampa,28.0150284,-82.4857457,FL,3.0,26,United States,"Tampa, FL, United States"
_mM29ipaSjYo4zJZkswZiA,Elevation Coffee Roasters,"Food, Tea Rooms, Internet Cafes, Coffee & Tea, Coffee Roasteries",Tampa,28.1056223211,-82.5312846143,FL,5.0,31,United States,"Tampa, FL, United States"
9_g3DU-5BnpTH1DC1kIe-w,ICED by Betsy,"Food, Bakeries, Desserts, Coffee & Tea",Royersford,40.1834664628,-75.5436979313,PA,5.0,26,United States,"Royersford, PA, United States"
fMsfxOQR01YZPRCnqoNuww,Northwest Coffee Roasting Company,"Food, Coffee & Tea, Cafes, Sandwiches, Restaurants",Clayton,38.6534324,-90.3477503,MO,3.5,65,United States,"Clayton, MO, United States"
buhO8vRCaEoNvlxU0AJRpQ,Starbucks,"Food, Coffee & Tea, Restaurants",Tampa,27.9410445,-82.5061125,FL,2.5,28,United States,"Tampa, FL, United States"
Jx2AoB_IQOUrZ3s6fdAUSA,Sips Specialty Coffee House,"Coffee & Tea, Food, Internet Cafes, Cafes, Restaurants",Tampa,28.0632446,-82.5503918,FL,4.5,219,United States,"Tampa, FL, United States"
Xn9XOYqXa4IHdHnaZr9JAA,Bubba Tea & Cafe,"Juice Bars & Smoothies, Restaurants, Sandwiches, Food, Coffee & Tea",Saint Louis,38.6303586,-90.1942555,MO,3.5,11,United States,"Saint Louis, MO, United States"
-lhHSR1Aws4CyYC1XOPVTw,Louis Pappas Fresh Greek,"Greek, Restaurants, Sandwiches, Cafes, Salad",Tampa,27.9200036,-82.4994284,FL,4.0,156,United States,"Tampa, FL, United States"
kQRB8RNwd7cEMcURTS-I7A,Sabrina's Café,"American (Traditional), Restaurants, Cafes, Comfort Food, Vegetarian, Breakfast & Brunch, American (New)",Collingswood,39.9159547157,-75.0684280694,NJ,4.0,570,United States,"Collingswood, NJ, United States"
5ewePyN_mEE_79OmYyYBEA,McDonald's,"Burgers, Fast Food, Food, Coffee & Tea, Restaurants",Sahuarita,31.9573971,-110.9817025,AZ,1.5,83,United States,"Sahuarita, AZ, United States"
bRF8nyWgzrzhQ31NoflMBA,Cafe Cioccolato,"Coffee & Tea, Wedding Planning, Food, Bakeries, Party & Event Planning, Desserts, Beer, Wine & Spirits, Specialty Food, Venues & Event Spaces, Restaurants, Chocolatiers & Shops, Event Planning & Services",Saint Louis,38.628419,-90.193352,MO,4.5,20,United States,"Saint Louis, MO, United States"
uppHXQH6tuNFtqxT8dRHig,Yvette's CountrySide Cafe,"Restaurants, Barbeque, Southern, Turkish, Breakfast & Brunch, American (Traditional), Food, Coffee & Tea, Mexican, Burgers, Cafes",Goodlettsville,36.4097572,-86.6910493,TN,4.0,5,United States,"Goodlettsville, TN, United States"
_kSaLnFZIEpOZEg6ZIxKvQ,High Point Cafe,"Coffee & Tea, Creperies, Bakeries, Cafes, Food, Restaurants",Philadelphia,39.9673949,-75.1696764,PA,4.0,28,United States,"Philadelphia, PA, United States"
iJOwwuhHP_0BCHmpmJ8l4Q,McDonald's,"Fast Food, Food, Restaurants, Coffee & Tea, Burgers",Philadelphia,39.9307946183,-75.2276433154,PA,2.0,15,United States,"Philadelphia, PA, United States"
5xokROlB8Zo5T-_qbHzsrQ,Buddy Brew Coffee ,"Food, Coffee & Tea",Tampa,27.944552,-82.480744,FL,4.0,459,United States,"Tampa, FL, United States"
cBp1fn2LXpSHe4VbTXLYEw,Bab Café - Reno,"Restaurants, Cafes, Korean, Gluten-Free, Comfort Food, Vegetarian, Vegan, Chicken Wings",Reno,39.5281099,-119.8169346,NV,4.5,470,United States,"Reno, NV, United States"
wAUkOyvAoyE6F7zuQ3g_UA,Flow State CoffeeBar,"Gelato, Restaurants, Cafes, Food, Coffee & Tea",Philadelphia,39.981907,-75.127012,PA,5.0,25,United States,"Philadelphia, PA, United States"
J-ciDDEdIHMcChGIyKZnOg,Cake Life Bake Shop,"Caterers, Cafes, Event Planning & Services, Food, Cupcakes, Bakeries, Restaurants, Desserts",Philadelphia,39.970468014,-75.1345396622,PA,4.5,241,United States,"Philadelphia, PA, United States"
cyt2QmCjELEDn71j8aE8Ow,Chateau Coffee Cafe,"Food, Coffee & Tea",Kenner,30.0213507,-90.2588589,LA,3.5,10,United States,"Kenner, LA, United States"
1et8GvbWnXrClLli988vJQ,Speedway,"Automotive, Coffee & Tea, Gas Stations, Food, Convenience Stores",Brownsburg,39.855779,-86.393656,IN,2.5,7,United States,"Brownsburg, IN, United States"
mGxaM5kUC2GhYkp3Dip52Q,Dutch Bros Coffee,"Food, Coffee & Tea, Juice Bars & Smoothies",Reno,39.4842722,-119.7931588,NV,4.0,126,United States,"Reno, NV, United States"
AtIGlkUITdQFhAG_JWp-Og,Cafe Bosna,"Modern European, Cafes, American (New), Restaurants",Hermitage,36.173394,-86.60264,TN,4.5,135,United States,"Hermitage, TN, United States"
dq_B8fJB1oPo645xkwPSKQ,French Truck Coffee,"Coffee & Tea, Food",New Orleans,29.9760845819,-90.0956663729,LA,4.0,17,United States,"New Orleans, LA, United States"
5SiNn7wyc2qOQkOC7EXYOw,Wawa,"Coffee & Tea, Sandwiches, Convenience Stores, Gas Stations, Restaurants, Automotive, Food",Maple Shade,39.9500219234,-74.9858752995,NJ,2.5,10,United States,"Maple Shade, NJ, United States"
vlqcTafHh27AuDbYtoG8rw,Un Caffé Italian Bistro,"Restaurants, Food, Breakfast & Brunch, Sandwiches, Pizza, Italian, Coffee & Tea",Reno,39.4908082825,-119.8057033,NV,4.5,28,United States,"Reno, NV, United States"
WFRro-8uIBpKoJ1VSKrpdw,Berry Sweet Frozen Yogurt,"Ice Cream & Frozen Yogurt, Coffee & Tea, Food",Philadelphia,39.942777,-75.1572649,PA,4.0,73,United States,"Philadelphia, PA, United States"
nXJ1dAI-UGbXfeaI_b1abA,Dunkin',"Food, Donuts, Coffee & Tea",Saint Petersburg,27.733127594,-82.679069519,FL,1.5,44,United States,"Saint Petersburg, FL, United States"
n8F6d2M3vGfQSZCXy_2ptg,Second Cup,"Desserts, Coffee & Tea, Food",Edmonton,53.559927,-113.566432,AB,2.5,9,Canada,"Edmonton, AB, Canada"
YMdXDiRiNoKEAFen3XUWFw,Upper Nine Doughnut Company,"Donuts, Food, Coffee & Tea",New Orleans,29.9634579,-90.0507011,LA,3.5,6,United States,"New Orleans, LA, United States"
NDHgJsy-4Lb6WhERPXPs0A,Alena’s Cafe,"Cafes, Restaurants",Philadelphia,40.0513741,-75.1849412,PA,5.0,29,United States,"Philadelphia, PA, United States"
1Efad30BdOeqqjX2d6P4sw,Ohana Cafe,"Vegan, Asian Fusion, Cafes, Vegetarian, Restaurants, Gluten-Free, Hawaiian",Palm Harbor,28.0690372,-82.775979,FL,4.0,99,United States,"Palm Harbor, FL, United States"
4BbzHEVKSHuctibot056og,City of Tucson,"Coffee & Tea, Local Flavor, Public Services & Government, Food",Tucson,32.2228721584,-110.9653975815,AZ,3.0,52,United States,"Tucson, AZ, United States"
L3QX19EWlkS-clS68Boydg,Cafe Du Monde,"Restaurants, Donuts, Coffee & Tea, Food",Metairie,30.0046093155,-90.1880181221,LA,4.5,216,United States,"Metairie, LA, United States"
vN6v8m4DO45Z4pp8yxxF_w,Surrey's Café & Juice Bar,"Vegetarian, Restaurants, Breakfast & Brunch, Cafes, Juice Bars & Smoothies, Sandwiches, Food",New Orleans,29.935799,-90.071906,LA,4.5,2084,United States,"New Orleans, LA, United States"
dEotxkNxYaoG_7TS3kzUvQ,Cinnzeo,"Food, Bakeries, Coffee & Tea, Desserts",Edmonton,53.522817,-113.62721,AB,3.5,12,Canada,"Edmonton, AB, Canada"
-9yzQQ0d_rcOD2CzdTNO_Q,McDonald's,"Fast Food, Restaurants, Coffee & Tea, Food, Burgers",New Orleans,30.0042438706,-90.0364068849,LA,2.0,20,United States,"New Orleans, LA, United States"
Zx7n8mdt8OzLRXVzolXNhQ,Milk and Honey Nashville,"American (New), Restaurants, American (Traditional), Food, Breakfast & Brunch, Coffee & Tea, Pizza",Nashville,36.1547024,-86.7845414,TN,4.0,1725,United States,"Nashville, TN, United States"
mPEemzmB68ThtuKhVXE3BA,OneCupJoe,"Coffee & Tea, Food, Tea Rooms, Restaurants, Cafes",Warminster,40.2003193059,-75.1016969504,PA,4.5,11,United States,"Warminster, PA, United States"
InI2O9i59galnR563-A9oA,Starbucks,"Food, Coffee & Tea, Restaurants",Palm Harbor,28.1001329,-82.6912161,FL,4.0,19,United States,"Palm Harbor, FL, United States"
eFwFIh7olBwMHQ6ByoRH-Q,Goody's Soda Fountain & Candy Store,"Coffee & Tea, Ice Cream & Frozen Yogurt, Desserts, Specialty Food, Food, Candy Stores",Boise,43.629425,-116.203008,ID,4.5,158,United States,"Boise, ID, United States"
GqQSFMLaM25zcM5OnCWnnQ,Nameless Coffee & Tea House,"Coffee & Tea, Food",Reno,39.5176087,-119.8080512,NV,4.5,63,United States,"Reno, NV, United States"
s8eXjE9r0vo78hzb3Br7cQ,Bay City Sandwich Shop,"Restaurants, Coffee & Tea, Sandwiches, Food",Tampa,27.9489566,-82.4570483,FL,4.5,10,United States,"Tampa, FL, United States"
ocvQV-47kkkG19z8tmedpw,Starbucks,"Food, Coffee & Tea",Mt. Juliet,36.162696,-86.514375,TN,2.5,28,United States,"Mt. Juliet, TN, United States"
p2SakAsYqdAvLqPpAhkekw,Dunkin' Donuts,"Coffee & Tea, Donuts, Bagels, Food",Philadelphia,40.1346700008,-75.0082556575,PA,2.5,10,United States,"Philadelphia, PA, United States"
BuYGuVflKu_pWtS-GXDH0A,Krispy Kreme,"Food, Donuts, Coffee & Tea",Smyrna,35.9860723,-86.5515888,TN,2.5,24,United States,"Smyrna, TN, United States"
BGLazGm6grYkF_HpodkdDQ,Old Town Cafe,"Food, American (New), Restaurants, Coffee & Tea",Palm Harbor,28.0780518,-82.7668844,FL,4.5,6,United States,"Palm Harbor, FL, United States"
z5YxP_jyIU7dRKUA7V_H0w,Cily Chicken Rice,"Hainan, Fast Food, Chinese, Coffee & Tea, Food, Restaurants, Thai",Philadelphia,39.955545,-75.1554729,PA,4.5,68,United States,"Philadelphia, PA, United States"
wuzoQhym6ll3fjAiVgIJbw,Good Cup,"Coffee & Tea, Food",Santa Barbara,34.4210925915,-119.701066,CA,3.5,109,United States,"Santa Barbara, CA, United States"
MjZQqZAmJeMco_Vq-Y9h-g,Starbucks,"Food, Coffee & Tea",Carmel,39.979658,-86.071156,IN,3.0,33,United States,"Carmel, IN, United States"
UfjOESkPzTXkV2o5suvkBg,Wawa,"Food, Automotive, Gas Stations, Sandwiches, Restaurants, Coffee & Tea, Convenience Stores",Maple Shade,39.9435732,-74.9689149,NJ,4.5,11,United States,"Maple Shade, NJ, United States"
zdG9d52hqH0JIk65LQzcaA,McDonald's,"Restaurants, Burgers, Fast Food, Food, Coffee & Tea",Deptford,39.8373782253,-75.0885714591,NJ,2.0,34,United States,"Deptford, NJ, United States"
_O_KBH1MStcUkS1xk5pxsg,Franny Lou's Porch,"Coffee & Tea, Breakfast & Brunch, Books, Mags, Music & Video, Bookstores, Tea Rooms, Bagels, Shopping, Sandwiches, Restaurants, Food",Philadelphia,39.9835674,-75.1293858,PA,4.5,68,United States,"Philadelphia, PA, United States"
zDEzXNbn84HD0lR0KD0seg,Szechuan Hill Chinese Restaurant,"Restaurants, Chinese, Cafes",Drexel Hill,39.9570895447,-75.3206777573,PA,3.5,53,United States,"Drexel Hill, PA, United States"
A-8K66Kx7fMXkayG_3zdJQ,la Madeleine,"Restaurants, Fruits & Veggies, French, Caterers, Food, Event Planning & Services, Specialty Food, Bakeries, Sandwiches, Cafes, Breakfast & Brunch",Metairie,30.0095891,-90.15963,LA,3.5,126,United States,"Metairie, LA, United States"
fgCDIVM8-PLgJuhxePt2MQ,Be Well Bakery & Cafe,"Restaurants, Coffee & Tea, Food, Cafes, Bakeries",Richboro,40.2107765,-75.0116925,PA,4.5,5,United States,"Richboro, PA, United States"
Gtn4_eWhhkjCVI613L2ZqQ,Starbucks,"Coffee & Tea, Food",Edmonton,53.4927862871,-113.4969258149,AB,3.0,9,Canada,"Edmonton, AB, Canada"
lH3tplAcbNrNL0nJoyXCNA,Keke's Breakfast Cafe,"Breakfast & Brunch, Restaurants, Diners, Cafes",Tampa,28.0714552,-82.4268348,FL,4.5,163,United States,"Tampa, FL, United States"
xkgbgwTlkhzwo4ya_eIW-g,Cafe Du Monde,"Coffee & Tea, Food, Donuts, Restaurants",Metairie,30.0059172371,-90.1573632995,LA,4.0,127,United States,"Metairie, LA, United States"
JhrvtLpCEQcYrZLbb6CZGw,Frist Art Museum Cafe,"Sandwiches, Coffee & Tea, Salad, Pizza, Desserts, American (New), Restaurants, Food",Nashville,36.157609,-86.7838239,TN,4.0,16,United States,"Nashville, TN, United States"
MUQDp-1rzSN3lCjUycNLug,Dunkin',"Donuts, Food, Coffee & Tea, Restaurants",Philadelphia,39.9385148,-75.1981973,PA,2.0,16,United States,"Philadelphia, PA, United States"
nROgQ9JIN0sjv-i5R1rHcA,McDonald's,"Food, Restaurants, Fast Food, Burgers, Coffee & Tea",Tampa,27.8945234966,-82.517929594,FL,2.0,21,United States,"Tampa, FL, United States"
u7MJKcNdZXYyTeb67vD5jw,Starbucks,"Food, Coffee & Tea",Mount Laurel,39.980794,-74.8885,NJ,1.5,17,United States,"Mount Laurel, NJ, United States"
jow8Lf_IYI2tUte2uY9ydg,Dharma Kava Lounge,"Lounges, Nightlife, Tea Rooms, Kombucha, Bars, Hookah Bars, Coffee & Tea, Food",Largo,27.8930878482,-82.7303597583,FL,4.0,24,United States,"Largo, FL, United States"
E-L64r-ZKFrctVILn4w6tg,Starbucks,"Coffee & Tea, Food",Port Richey,28.292143,-82.711172,FL,3.5,6,United States,"Port Richey, FL, United States"
U18r2iiKDtuXtwmiEnsmlQ,Paradise Sweets,"Shaved Ice, Food, Coffee & Tea, Ice Cream & Frozen Yogurt",St. Pete Beach,27.6878048,-82.7376643,FL,4.5,90,United States,"St. Pete Beach, FL, United States"
7BmboJEmyQ_DAgTCoCgpgg,Vientiane Bistro,"Vegan, Restaurants, Laotian, Asian Fusion, Thai, Cafes",Philadelphia,39.9881000819,-75.1282148436,PA,4.5,67,United States,"Philadelphia, PA, United States"
geMJbmX310M5VYe2f7au8Q,Inside the Box,"American (Traditional), Restaurants, Caterers, Event Planning & Services, Salad, Cafes, Sandwiches",Tampa,27.9633947,-82.4596945,FL,4.0,27,United States,"Tampa, FL, United States"
pTeatktHioSoawLSCzfgKg,Catahoula Coffee Shop,"Food, Coffee & Tea",New Orleans,29.951897,-90.0730787,LA,4.5,6,United States,"New Orleans, LA, United States"
7GmQ9LYOoHuvsiaIJuLykQ,Saint Cecilia,"American (Traditional), Nightlife, Bars, Coffee & Tea, Food, Breakfast & Brunch, Restaurants",New Orleans,29.9610996,-90.0583835,LA,4.5,205,United States,"New Orleans, LA, United States"
WkNJ3FnK5WVW3thVUe-WSw,Izzy's 33,"Mexican, Restaurants, Cafes, Breakfast & Brunch, Italian",Philadelphia,39.9280043249,-75.160044618,PA,4.5,24,United States,"Philadelphia, PA, United States"
-RzbRfPnKcwTixtokN-p6A,Cosi,"Food, Coffee & Tea",Philadelphia,39.9422572,-75.145956,PA,3.5,5,United States,"Philadelphia, PA, United States"
8MyjJ5ocf9VFjdscKrQu4A,Mudbugs Cajun Cafe,"Restaurants, Cajun/Creole, Cafes",Carmel,39.9784837,-86.1275897,IN,4.0,162,United States,"Carmel, IN, United States"
dYMb9V0rUmspH-59KnobrA,Dunkin',"Donuts, Food, Bakeries, Diners, Restaurants, Coffee & Tea",Arnold,38.4467374366,-90.3714872897,MO,1.5,23,United States,"Arnold, MO, United States"
5D-Gjagh385iopO3xqjjIQ,McDonald's,"Burgers, Coffee & Tea, Fast Food, Restaurants, Food",Caseyville,38.6131177,-90.0457877,IL,1.5,37,United States,"Caseyville, IL, United States"
ZznSNkRERGH8l-wSFJKsEA,McDonald's,"Fast Food, Burgers, Coffee & Tea, Food, Restaurants",Edmonton,53.570705,-113.5354858,AB,1.5,11,Canada,"Edmonton, AB, Canada"
ksma5FPvWkaZvcwHz_bZPA,McDonald's,"Restaurants, Fast Food, Burgers, Coffee & Tea, Food",Tucson,32.3057217,-111.0128118,AZ,1.5,25,United States,"Tucson, AZ, United States"
smRQA9crZ6SwUrLATMSVPg,Wawa,"Food, Sandwiches, Convenience Stores, Restaurants, Coffee & Tea",Bensalem,40.1359626,-74.9424668,PA,4.0,9,United States,"Bensalem, PA, United States"
QSA-x2bb3kum9QLFpy7vUg,McDonald's,"Restaurants, Coffee & Tea, Fast Food, Food, Burgers",Fishers,39.9795004552,-86.0048751533,IN,1.5,26,United States,"Fishers, IN, United States"
uY7um5bWKhiVwzL0wakJXA,Manhattan Bagel,"Sandwiches, Food, Coffee & Tea, Restaurants, Bagels",Willow Grove,40.1696679,-75.1271508,PA,2.0,22,United States,"Willow Grove, PA, United States"
UjXH7iq8eYauQoGswkxGYw,Wawa,"Food, Restaurants, Convenience Stores, Delis, Coffee & Tea, Sandwiches",Philadelphia,40.0607947,-75.1920424,PA,2.5,28,United States,"Philadelphia, PA, United States"
n1i7yciuoS2_6_g7ix9jlQ,Cannoli Queen,"Sandwiches, Italian, Cafes, Restaurants",Greenwood,39.635812,-86.081567,IN,4.5,62,United States,"Greenwood, IN, United States"
WB7-m5YtEhSwMqEOfbFfyg,Einstein Bros Bagels,"Bakeries, Restaurants, Food, Bagels, Coffee & Tea",Saint Louis,38.640477,-90.261994,MO,2.5,52,United States,"Saint Louis, MO, United States"
z37fpa6lh-HOIQh0MbQXag,The Mug Shot Coffee & Eatery,"Cafes, Restaurants, Breakfast & Brunch, Coffee & Tea, Food",Reno,39.5229964,-119.8133005,NV,4.5,29,United States,"Reno, NV, United States"
oyrz4wG_0cI2xStw8Ct22Q,Petite Rouge Cafe ,"Coffee & Tea, Food Trucks, Cafes, Caterers, Restaurants, Event Planning & Services, Food",New Orleans,29.9474216,-90.1133301,LA,4.5,40,United States,"New Orleans, LA, United States"
GZDkhotwnmGlpYUKxAwobw,Bullard Seafood and Grill,"Restaurants, Cafeteria, Seafood, Comfort Food, Cajun/Creole, Chinese, Barbers, American (New), Beauty & Spas, Southern",New Orleans,30.048176,-89.9622058,LA,3.5,41,United States,"New Orleans, LA, United States"
2brttsiFBlW8070dsPzQDA,First Watch,"Breakfast & Brunch, Restaurants, Cafes, American (New), American (Traditional)",Indianapolis,39.769421,-86.1595979,IN,4.0,320,United States,"Indianapolis, IN, United States"
ujWCzhA9YS2fXzXPW9Lc9Q,Flap-Jacks Pancake House,"Food, Coffee & Tea, Cafeteria, Restaurants, Breakfast & Brunch",Indianapolis,39.779037,-86.292772,IN,4.0,78,United States,"Indianapolis, IN, United States"
PPcz-0UtIJ8O7xDT551y2g,Intermezzo By Wine Cask,"Tapas Bars, Nightlife, Salad, Restaurants, Cocktail Bars, Bars, Wine Bars, Cafes, Pizza, American (New)",Santa Barbara,34.4211464,-119.6988864,CA,4.5,141,United States,"Santa Barbara, CA, United States"
JAMmjTFdUGBpV24K1riSjQ,Yellow Bicycle Canteen,"Caterers, Event Planning & Services, Cafes, Vegetarian, Restaurants, Sandwiches",Philadelphia,39.9472244065,-75.1572515,PA,5.0,13,United States,"Philadelphia, PA, United States"
vUrTGX_7HxqeoQ_6QCVz6g,Suraya,"Active Life, Beer Gardens, Grocery, Middle Eastern, Specialty Food, American (New), Parks, Cafes, Food, Nightlife, Restaurants, Coffee & Tea, Lebanese",Philadelphia,39.9736865005,-75.1339557767,PA,4.5,1121,United States,"Philadelphia, PA, United States"
P0u1f6ea6LsyB8m1CXXyNw,McDonald's,"Restaurants, Fast Food, Burgers, Coffee & Tea, Food",Marana,32.3562922407,-111.0893377812,AZ,2.0,18,United States,"Marana, AZ, United States"
6rZkogALtWhE57DpWhK6ow,McDonald's,"Food, Restaurants, Fast Food, Burgers, Coffee & Tea",Palm Harbor,28.0624351131,-82.7060571313,FL,3.0,25,United States,"Palm Harbor, FL, United States"
88CBVHYANgrKdP6Ns9ILlw,The Cafe DbyD,"Breakfast & Brunch, Desserts, Bakeries, Caribbean, Restaurants, Cafes, Food",Nashville,36.1042798,-86.8159443,TN,4.5,39,United States,"Nashville, TN, United States"
W0JwMDaPz4KxJPqiUuh45A,McDonald's,"Coffee & Tea, Food, Fast Food, Restaurants, Burgers",Bryn Mawr,40.026761,-75.328401,PA,1.5,74,United States,"Bryn Mawr, PA, United States"
TNz-ZAiCS6GzN1PtDBn-RA,The Bean Bar,"Cafes, Food Trucks, Breakfast & Brunch, Juice Bars & Smoothies, Restaurants, Coffee & Tea, Food",Tampa,28.1183792,-82.3817456,FL,4.0,17,United States,"Tampa, FL, United States"
GUAF7ybULhg68asLfFZYbA,Dunkin' Donuts,"Food, Coffee & Tea, Donuts",Goodlettsville,36.3303955006,-86.6981277223,TN,2.0,19,United States,"Goodlettsville, TN, United States"
0Jw_Q5vH6phmYxesX9jRUA,Empty Nest Cafe and Bar,"Seafood, Restaurants, Cafes, Comfort Food, Sandwiches, American (Traditional), Breakfast & Brunch",Metairie,30.0167047,-90.2006809,LA,4.0,27,United States,"Metairie, LA, United States"
fFA6bjWbq724vB1tW4V9pQ,McDonald's,"Coffee & Tea, Food, Fast Food, Restaurants, Burgers",Philadelphia,40.0503776775,-75.0094825029,PA,1.5,15,United States,"Philadelphia, PA, United States"
JjaUdQ5dnJ5Ktitu4UpWZg,Dutch Bros Coffee,"Juice Bars & Smoothies, Food, Tea Rooms, Cafes, Restaurants, Coffee & Tea",Oro Valley,32.383344,-110.9637618,AZ,4.0,20,United States,"Oro Valley, AZ, United States"
mvJazJqQvm7CO7kykpDptg,McDonald's,"Fast Food, Coffee & Tea, Food, Burgers, Restaurants",Edmonton,53.4949355039,-113.6646821691,AB,2.5,17,Canada,"Edmonton, AB, Canada"
29YqJwOGEuAWqlHZxMc1OA,Paradise Cafe,"American (Traditional), American (New), Nightlife, Restaurants, Seafood, Cafes",Santa Barbara,34.4200355,-119.6968511,CA,3.5,290,United States,"Santa Barbara, CA, United States"
urqTD_JA6CphlyU0I-AyKg,Starbucks,"Food, Coffee & Tea",Nashville,36.159393,-86.77497,TN,2.0,32,United States,"Nashville, TN, United States"
FrFK24JWjyc3nhR9mcSoqQ,The Original Coffee Bar,"Juice Bars & Smoothies, Food, Coffee & Tea, Internet Cafes",Collingdale,39.9104043,-75.2807836,PA,4.5,7,United States,"Collingdale, PA, United States"
9LZWyTM6KCr6JvfWEgGeQw,Yoya Self Service Frozen Yogurt and Bubble Tea,"Ice Cream & Frozen Yogurt, Food, Bubble Tea, Coffee & Tea",Indianapolis,39.9117584,-86.2210942,IN,4.0,102,United States,"Indianapolis, IN, United States"
KiE0h68HGOO7ZXAqkMBdiw,Starbucks,"Food, Coffee & Tea",Santa Barbara,34.4194400142,-119.704452981,CA,2.5,35,United States,"Santa Barbara, CA, United States"
wP0SSjU7R-m9j-VRhOCzmg,Paris Baguette,"Food, Patisserie/Cake Shop, Bakeries, Coffee & Tea",Philadelphia,39.9551256,-75.1998158,PA,4.5,15,United States,"Philadelphia, PA, United States"
QJfM8uRNy6KHhj6kIatzmg,Whitebox Eatery,"Food, American (Traditional), Cafes, Coffee & Tea, Salad, American (New), Breakfast & Brunch, Restaurants, Sandwiches",Clayton,38.6482593,-90.3329904,MO,4.0,170,United States,"Clayton, MO, United States"
cgnU59I7pMj-VMeBXhh4cA,Healthy Happies Carmel,"Cafes, Food, Breakfast & Brunch, Specialty Food, Health Markets, Restaurants, Juice Bars & Smoothies, Coffee & Tea",Carmel,39.9636938,-86.1253351,IN,4.0,15,United States,"Carmel, IN, United States"
bWFZ_VkmkY2oA4NlWXPVBg,WIN Bubble Tea - Hickory Hollow,"Desserts, Bubble Tea, Coffee & Tea, Food",Antioch,36.0479941,-86.6573008,TN,4.5,9,United States,"Antioch, TN, United States"
oGdbvXKXVCQ8WC_GQePDkQ,3 Sisters Café,"Cafes, Restaurants",Indianapolis,39.8690303,-86.1427806,IN,4.0,358,United States,"Indianapolis, IN, United States"
ZRW9dxsm9Peh2zRHNvv29g,Cafe de Marco,"Sandwiches, Cafes, Salad, Restaurants, Cuban",North Redington Beach,27.818693,-82.823215,FL,4.5,9,United States,"North Redington Beach, FL, United States"
AWJyivVwe3t9BO-k8D0ynQ,Cafe Square One,"Food, Coffee & Tea, Cafes, Salad, Sandwiches, Sushi Bars, Restaurants, Breakfast & Brunch",Philadelphia,39.9489068,-75.1460802,PA,4.5,245,United States,"Philadelphia, PA, United States"
MjJ0ZTZxw9Rn5TDWEbLaQg,Foysters Dockside BYOB,"Cafes, Seafood, Boating, Active Life, Cheesesteaks, Restaurants, American (New), Local Flavor",Delran,40.0374069214,-74.9775772095,NJ,4.0,7,United States,"Delran, NJ, United States"
Visax-kBz0AY_34PkuvXSQ,K Dessert cafe,"Coffee & Tea, Food, Juice Bars & Smoothies, Desserts, Bubble Tea",Tampa Bay,27.9982647,-82.5636716,FL,5.0,7,United States,"Tampa Bay, FL, United States"
GtfM73QC1y4_j8ghKPSt_w,Parrot Pete's,"Ice Cream & Frozen Yogurt, Food, Restaurants, Coffee & Tea, Desserts, Breakfast & Brunch",Harvey,29.8873974,-90.0557048,LA,2.5,98,United States,"Harvey, LA, United States"
H1bbYNKgk6JF9pKcBXyDXw,Dunkin',"Coffee & Tea, Restaurants, Donuts, Food",Mount Laurel,39.9368076081,-74.9681514781,NJ,2.0,13,United States,"Mount Laurel, NJ, United States"
TSkZWzfBuBr224eBMczZ_g,Stacie's Cottage Cafe,"Coffee & Tea, Cafes, Breakfast & Brunch, Restaurants, Sandwiches, Food",Saint Petersburg,27.7725051016,-82.6405411,FL,4.0,27,United States,"Saint Petersburg, FL, United States"
6XFAHeS-BTzxpBMg2wRbtg,Cafe 421,"Restaurants, Food, Cafes, Bakeries",Clearwater,27.9655051231,-82.8005942702,FL,3.5,6,United States,"Clearwater, FL, United States"
uy_x3_mSkzcjod2fM1ZdRw,The Red Bicycle,"Restaurants, Creperies, Food, Beer Gardens, Coffee & Tea, Nightlife",Nashville,36.1563420825,-86.8485208452,TN,3.5,61,United States,"Nashville, TN, United States"
LAUvZGqjB6edmeD1RTX6fQ,St Roch Kitchen,"Cafeteria, Sandwiches, Restaurants, Breakfast & Brunch, Local Flavor",New Orleans,30.0193581626,-89.9632706618,LA,3.5,9,United States,"New Orleans, LA, United States"
fAiPD2OIEm9wtS7uJqzu5Q,Natural Cafe,"Food, Vegetarian, Salad, Restaurants, Cafes, American (Traditional), Burgers, Juice Bars & Smoothies",Goleta,34.4294615,-119.8712408,CA,4.0,130,United States,"Goleta, CA, United States"
X_X60vlWlPLWcW97LPrSjw,7-Eleven,"Coffee & Tea, Food, Convenience Stores",Philadelphia,39.9820199478,-75.1560544968,PA,4.0,5,United States,"Philadelphia, PA, United States"
QCZvkvipsfyZ_5uBy3PkpQ,Wawa,"Restaurants, Coffee & Tea, Sandwiches, Convenience Stores, Food",Sicklerville,39.7710434,-75.0459647,NJ,3.0,17,United States,"Sicklerville, NJ, United States"
rG0UTjvbmVVsh9-kGzeliQ,City Limits Bakery & Cafe,"Food, Bakeries, Restaurants, Cafes",Nashville,36.0641919,-86.9393868,TN,4.0,112,United States,"Nashville, TN, United States"
8xM8akbQhHDQdJO1sPMB1A,Black Rock Coffee Bar,"Coffee & Tea, Food",Boise,43.6191749,-116.2807305,ID,4.5,7,United States,"Boise, ID, United States"
xYmyJQiCnsMdxHpMQomxqQ,McDonald's,"Fast Food, Restaurants, Burgers, Coffee & Tea, Food",Avon,39.7632800176,-86.4024388685,IN,2.5,22,United States,"Avon, IN, United States"
uVIOgGhOYozGPwpptrF3Cw,Microsoft Cafe,"Restaurants, Cafes, Food, Breakfast & Brunch",Reno,39.466084,-119.7801278,NV,4.5,11,United States,"Reno, NV, United States"
0-XYsSxJhu8ayKx1f3v_tA,Cath Coffee & Tea House,"Coffee & Tea, American (Traditional), Food, Restaurants",Indianapolis,39.7686835,-86.153515,IN,4.0,19,United States,"Indianapolis, IN, United States"
S2qHo7frBbF7dWwmvxGZTg,iCafe,"Food, Internet Cafes, Restaurants, Cafes",Carmel,39.9581257518,-86.1156249046,IN,3.5,7,United States,"Carmel, IN, United States"
kdJMzQCyG9X07lEgTWWveQ,Sun Diner,"Restaurants, Cafes, Diners, Breakfast & Brunch, Burgers",Nashville,36.1612202348,-86.7758725821,TN,4.0,460,United States,"Nashville, TN, United States"
bpEiVcivZFHixcDGKXQQJA,Valerio Coffee Roasters,"Coffee & Tea, Bagels, Food, Breakfast & Brunch, Restaurants",Philadelphia,40.0252890632,-75.2227872271,PA,4.0,34,United States,"Philadelphia, PA, United States"
2KIDQyTh-HzLxOUEDqtDBg,Mazzaro's Italian Market,"Specialty Food, Delis, Coffee Roasteries, Butcher, Meat Shops, Food, Restaurants, Grocery, Italian",Saint Petersburg,27.7922562,-82.673539,FL,4.5,1551,United States,"Saint Petersburg, FL, United States"
fvY3H_jCM3yiogUstXsplw,7-Eleven,"Food, Coffee & Tea, Convenience Stores",Marlton,39.8916675248,-74.9218118191,NJ,4.0,8,United States,"Marlton, NJ, United States"
OQBgwnIHY7vOrbjft8RM8w,Blackberry Cafe,"Food, Coffee & Tea, Sandwiches, Restaurants",Saint Louis,38.648705,-90.327343,MO,3.0,21,United States,"Saint Louis, MO, United States"
T4-vocFpzwlIxAQIi22FFA,Another Broken Egg Cafe,"American (Traditional), Breakfast & Brunch, Cafes, Restaurants",Clearwater Beach,27.98128,-82.82624,FL,4.5,511,United States,"Clearwater Beach, FL, United States"
xW6anc3eKbijsELT7FLr9g,Wawa,"Restaurants, Food, Convenience Stores, Sandwiches, Delis, Coffee & Tea",Gilbertsville,40.311019,-75.6334925,PA,3.0,6,United States,"Gilbertsville, PA, United States"
4WdDY97x4GdMYtyk1KQMnw,Lilly's Cafe,"Cafes, American (Traditional), Vietnamese, Restaurants",New Orleans,29.932123,-90.0735046315,LA,4.5,777,United States,"New Orleans, LA, United States"
_ahiaZVH2uVzVaZ0SF2uOg,Manhattan Bagel,"Breakfast & Brunch, Sandwiches, Restaurants, Bagels, Food, Cafes",North Wales,40.2091224159,-75.2267977595,PA,2.5,27,United States,"North Wales, PA, United States"
OevKyf31TBJkGdKCarZiew,Lucky 7 Deli,"Food, Delis, Coffee & Tea, Convenience Stores, Restaurants, Cheesesteaks",Bristol,40.1318888,-74.8873063,PA,3.0,11,United States,"Bristol, PA, United States"
f3xbrkFqjahlcOs8NSkNsA,Kool Licks,"Coffee & Tea, Ice Cream & Frozen Yogurt, Food",Sellersville,40.3559188843,-75.3062591553,PA,5.0,6,United States,"Sellersville, PA, United States"
rmPlBsLaXv9mMPltIZO5hw,Fulton Street Cafe,"Restaurants, Coffee & Tea, Food, Cafes, Desserts",New Orleans,29.9419651,-90.0652612,LA,3.0,24,United States,"New Orleans, LA, United States"
D9p7-HsY9llYP3BaCVg4DA,Cafe Soleil,"Restaurants, French, Coffee & Tea, Bakeries, Breakfast & Brunch, Cafes, Food, Sandwiches",St. Pete Beach,27.723416,-82.739291,FL,5.0,468,United States,"St. Pete Beach, FL, United States"
5TzAmqzksrUBB2tdHDQAUA,Hyde Perk Coffee House,"Food, Coffee & Tea",Boise,43.6297093,-116.2035185,ID,4.5,93,United States,"Boise, ID, United States"
9SVub2VmfgMmyqe3KQh3bA,McDonald's,"Food, Burgers, Fast Food, Restaurants, Coffee & Tea",Brentwood,36.0353716033,-86.7917333543,TN,2.0,27,United States,"Brentwood, TN, United States"
nt3s_bLQirMU2WysUQ62Sw,DAVIDsTEA,"Tea Rooms, Food, Coffee & Tea",Edmonton,53.4856393,-113.513686,AB,5.0,11,Canada,"Edmonton, AB, Canada"
zsDjnBHyJsYfkdry96x75g,Gold Coffee Pancake House,"Breakfast & Brunch, Food, Restaurants, Coffee & Tea",Indianapolis,39.6386881234,-86.0839409754,IN,3.5,92,United States,"Indianapolis, IN, United States"
ygyLBdPZhXpFmfq6EAZ62Q,7-Eleven,"Grocery, Food, Coffee & Tea, Convenience Stores",Conshohocken,40.0779750432,-75.3016269448,PA,2.5,8,United States,"Conshohocken, PA, United States"
LdKOAUDS7L8wj1ft3GnMmw,Health Haven Market,"Vegan, Gluten-Free, Specialty Food, Shopping, Health Markets, Cafes, Restaurants, Vitamins & Supplements, Food",Hainesport,39.9771836,-74.8330303,NJ,3.5,14,United States,"Hainesport, NJ, United States"
o3RGMdSY37_PX1k1vZsXpA,Cafe Ponte,"American (New), Cafes, Restaurants",Clearwater,27.8948541,-82.7137001,FL,4.5,541,United States,"Clearwater, FL, United States"
hpTU_2MMC9mtWQGq5Jr3ZQ,Tropiccool,"Ice Cream & Frozen Yogurt, Food, Coffee & Tea, Juice Bars & Smoothies",St. Petersburg,27.7710254,-82.6639613,FL,4.5,45,United States,"St. Petersburg, FL, United States"
SETJPjryrcYvo2ezLm0WaA,Starbucks,"Food, Coffee & Tea",Tampa,28.059719,-82.41221,FL,2.5,18,United States,"Tampa, FL, United States"
1JtpcHELRrSDoWS80WtzuQ,Chef's Market Cafe & Takeaway,"Food, American (New), Coffee & Tea, Caterers, Event Planning & Services, Specialty Food, Restaurants",Goodlettsville,36.3222792,-86.7031195,TN,4.5,319,United States,"Goodlettsville, TN, United States"
h22117eMO-kVtCOLYYL6GA,Darkshot Coffee,"Food, Coffee & Tea",Reno,39.5252535,-119.8107681,NV,4.0,5,United States,"Reno, NV, United States"
fVkyuNElYY3AO4a3SxchCg,Wawa,"Grocery, Automotive, Food, Coffee & Tea, Gas Stations, Convenience Stores, Sandwiches, Restaurants",Somerdale,39.844732,-75.018181,NJ,4.0,5,United States,"Somerdale, NJ, United States"
7A-q7-bajt0NxMy36dUfIw,The Station,"Restaurants, Food, Breakfast & Brunch, Vegetarian, Coffee & Tea, Art Galleries, Arts & Entertainment, Bakeries, Shopping, Jewelry",Merchantville,39.9522838,-75.048543,NJ,4.0,37,United States,"Merchantville, NJ, United States"
vzG8THG9K2lDu-Ah6vFAVA,Café Piazza,"Cafes, Italian, Pizza, Restaurants, Breakfast & Brunch",Saint Louis,38.596777345,-90.2178671888,MO,4.0,164,United States,"Saint Louis, MO, United States"
MnCs5pIA0BF3FN7T6wTNyg,O blue café,"Restaurants, Cafes",Philadelphia,39.9625734,-75.1447558,PA,5.0,11,United States,"Philadelphia, PA, United States"
h-bXrwqcxFA5cz_ATTIQeA,The Egg & I,"Breakfast & Brunch, Cafes, Restaurants, American (Traditional)",Franklin,35.9518831,-86.8067593,TN,3.0,39,United States,"Franklin, TN, United States"
ka-GZEjFKl8lmDXlZPftoQ,Agabiti's Cafe'-teria & Catering,"Food, Wedding Planning, Event Planning & Services, Cafes, Restaurants, Caterers",Newtown,40.233187,-74.8960855,PA,4.0,5,United States,"Newtown, PA, United States"
BtXwqcJq0xS607Hsq5Wq1A,Starbucks,"Coffee & Tea, Food",Newark,39.677902,-75.65279,DE,2.0,5,United States,"Newark, DE, United States"
NeY1bH6IKJxnn4YAixibsQ,Cosi,"Coffee & Tea, Restaurants, Sandwiches, Food",Philadelphia,39.9536708974,-75.1949572908,PA,2.5,115,United States,"Philadelphia, PA, United States"
7fGsiwsL-cg4UIXWys5fNA,Concord Bowl and Recreation,"Bowling, Local Flavor, Restaurants, Active Life, Mini Golf, Batting Cages, Cafes",Saint Louis,38.5205639101,-90.3634550795,MO,3.0,27,United States,"Saint Louis, MO, United States"
2zocwC7qMq3LsivPn9Z-Eg,Gryphon Cafe,"Restaurants, Coffee Roasteries, Coffee & Tea, Food, Breakfast & Brunch, Sandwiches, Bagels",Wayne,40.044301,-75.388243,PA,4.0,195,United States,"Wayne, PA, United States"
I3xJD0fXyiokQtb_6sn0fQ,Starbucks,"Food, Restaurants, Coffee & Tea",Wayne,40.043601,-75.383349,PA,3.5,17,United States,"Wayne, PA, United States"
i5CdJTdTSNUCqtKWzYNRaA,Traveling Tea,"Coffee & Tea, Shopping, Food",Maplewood,38.6122645649,-90.3199764684,MO,4.5,14,United States,"Maplewood, MO, United States"
vyyr3G874jpRYSQo2KPZow,Cristino's Bakery,"Mexican, Restaurants, Bakeries, Food, Sandwiches, Coffee & Tea",Goleta,34.432215,-119.8481,CA,5.0,117,United States,"Goleta, CA, United States"
hJnW5-ovJQkecq0EZhHaKw,DoDo Bakery,"Coffee & Tea, Bubble Tea, Custom Cakes, Bakeries, Food",Philadelphia,39.9163107,-75.1659042976,PA,4.5,12,United States,"Philadelphia, PA, United States"
8usO-H5uFTzlISfGZN8rSg,Devon Donut & Bagel Company,"Food, Coffee & Tea, Donuts, Bagels",Devon,40.0475194046,-75.4118892336,PA,3.5,85,United States,"Devon, PA, United States"
QDvQmizwCiFGf3y0Om9jyA,Frog at the Yard,"American (Traditional), Coffee & Tea, Restaurants, Food",Philadelphia,39.888531,-75.1785888,PA,3.5,10,United States,"Philadelphia, PA, United States"
_RHKuqA3mCHBaNyoljJTrQ,McDonald's,"Restaurants, Food, Coffee & Tea, Burgers, Fast Food",Indianapolis,39.7588882824,-86.1131304502,IN,2.5,15,United States,"Indianapolis, IN, United States"
r7iK-eZzarezCOIChpa8hA,The Tattooed Pig,"Food Delivery Services, American (New), Food, Caterers, Bakeries, Tacos, Mexican, Event Planning & Services, Restaurants, American (Traditional), Food Trucks, Breakfast & Brunch, Cafes",Aston,39.8577381,-75.4270299,PA,4.0,56,United States,"Aston, PA, United States"
R-EoysIkhjXJrIUvEgYYLg,Wawa,"Coffee & Tea, Food, Convenience Stores, Restaurants, Sandwiches",Audubon,39.890458,-75.065472,NJ,3.5,8,United States,"Audubon, NJ, United States"
vHAjYdA3c4G3E7HKMl3OgQ,Barrister's Bagels,"Bagels, Breakfast & Brunch, Sandwiches, Coffee & Tea, Cafes, Restaurants, Food",Royersford,40.2122122,-75.4965045,PA,3.0,93,United States,"Royersford, PA, United States"
_f654bkrYdNs1wB_fQVS5w,Crocodile Catering,"Sandwiches, Cafes, Salad, Restaurants, Event Planning & Services, Caterers",Wayne,40.06841,-75.42691,PA,4.5,15,United States,"Wayne, PA, United States"
mhkPodUyu4xQe5QBXXlYdA,Wawa,"Automotive, Fast Food, Coffee & Tea, Sandwiches, Convenience Stores, Restaurants, Food, Gas Stations",Royersford,40.2326217929,-75.5276961887,PA,3.5,5,United States,"Royersford, PA, United States"
1qHkyWDixBqIE_SH4fuCXQ,The White Heron Tea and Gifts,"Bakeries, Coffee & Tea, Food, Tea Rooms, Local Flavor, Gift Shops, Shopping, Flowers & Gifts",New Port Richey,28.2494113993,-82.7195060626,FL,4.5,29,United States,"New Port Richey, FL, United States"
hkiJtkvSNBiSkc_op9a54A,Hummingbird Cafe,"Restaurants, Cafes",Tucson,32.2197685242,-110.8433303833,AZ,4.0,5,United States,"Tucson, AZ, United States"
imfSiNMesWjGTSX7xLDHXg,Brew Ville,"Food, Coffee & Tea, Coffee & Tea Supplies",Edmonton,53.5178137,-113.4657987,AB,5.0,17,Canada,"Edmonton, AB, Canada"
RPszRvgRQR5q7WMGhVNLCA,Wawa,"Food, Restaurants, Convenience Stores, Sandwiches, Coffee & Tea",Lansdale,40.2284697,-75.3142052,PA,3.5,22,United States,"Lansdale, PA, United States"
KhBUg5QhBYuK8RZAe5gDMQ,The Independent,"Restaurants, Nightlife, Pubs, Food, Bars, American (New), German, Coffee & Tea, American (Traditional), Beer Bar",Tampa,27.9919501,-82.4596455,FL,4.0,360,United States,"Tampa, FL, United States"
c4x06huNhVp04VI_MUiQsw,McDonald's,"Burgers, Restaurants, Coffee & Tea, Fast Food, Food",Valley Park,38.566874,-90.476937,MO,1.5,42,United States,"Valley Park, MO, United States"
q72up2Av5yNNVPk7vdKg9w,The Egg & I,"Cafes, American (Traditional), Breakfast & Brunch, Restaurants",Carmel,39.95551,-86.1176451,IN,3.0,133,United States,"Carmel, IN, United States"
oT5Bidkfa7cGOp1806ryXQ,Starbucks,"Cafes, Restaurants, Food, Coffee & Tea",Indianapolis,39.9136654,-86.1391224,IN,3.5,28,United States,"Indianapolis, IN, United States"
U3WKSiu7OquPEnRuEchthQ,Sunshine Cafe,"Breakfast & Brunch, Fish & Chips, Restaurants, Cafes",Ruskin,27.7123779,-82.3733775,FL,3.5,31,United States,"Ruskin, FL, United States"
ompDR5sUDpoI6gnTldmneQ,The Praline Connection,"Seafood, Cajun/Creole, Candy Stores, Coffee & Tea, Food, Restaurants, Soul Food, Specialty Food",New Orleans,29.9634035,-90.0579092,LA,3.5,770,United States,"New Orleans, LA, United States"
eoI-rJfnSV_rLjqRXXSWSw,"The Stacks, Art and Design Bookstore","Cards & Stationery, Cafes, Restaurants, Flowers & Gifts, Shopping, Event Planning & Services, Arts & Crafts, Books, Mags, Music & Video, Bookstores",New Orleans,29.9435888,-90.0705161,LA,4.5,6,United States,"New Orleans, LA, United States"
kFxHQcrCEycaWLEOkkoE1A,The Neidhammer Coffee Co.,"Real Estate, Venues & Event Spaces, Food, Home Services, Coffee & Tea, Sandwiches, Event Planning & Services, Restaurants, Breakfast & Brunch, Specialty Food, Creperies, Shared Office Spaces, Wedding Planning",Indianapolis,39.7678706,-86.1250896,IN,4.5,156,United States,"Indianapolis, IN, United States"
QYzYOJ7AY9av4qaSNlu2oQ,Veskolini Cafe,"Coffee & Tea, Cafes, Desserts, Restaurants, Food",Dunedin,28.0129188584,-82.7863201434,FL,5.0,35,United States,"Dunedin, FL, United States"
jSP0rpPCYJ-FvW6yydY8Mg,McDonald's,"Fast Food, Food, Restaurants, Coffee & Tea, Burgers",Marana,32.337956,-111.048389,AZ,2.5,36,United States,"Marana, AZ, United States"
BauybYsfqd0y6KDrJ6ZxjQ,Starbucks,"Coffee & Tea, Food",Tucson,32.220577,-110.8384691,AZ,3.5,67,United States,"Tucson, AZ, United States"
wTDuyCnQuPEvArtcX46FFQ,Proino Breakfast & Lunch,"Restaurants, Breakfast & Brunch, Cafes, Mediterranean, American (New), Pizza, American (Traditional)",Clearwater,27.9347746,-82.7878394,FL,4.0,25,United States,"Clearwater, FL, United States"
